[
  {
    "address": "Dự án 134 Quán Thánh, Quận Ba Đình",
    "location": {
      "lat": 21.0389429,
      "lng": 105.8393044
    }
  },
  {
    "address": "Dự án 15-17 Ngọc Khánh, Quận Ba Đình",
    "location": {
      "lat": 21.0295078,
      "lng": 105.8176052
    }
  },
  {
    "address": "Dự án 16 Liễu Giai, Quận Ba Đình",
    "location": {
      "lat": 21.036309,
      "lng": 105.814677
    }
  },
  {
    "address": "Dự án 222 Đội Cấn, Quận Ba Đình",
    "location": {
      "lat": 21.0353867,
      "lng": 105.8185249
    }
  },
  {
    "address": "Dự án 6 Đội Nhân, Quận Ba Đình",
    "location": {
      "lat": 21.0419246,
      "lng": 105.8108259
    }
  },
  {
    "address": "Dự án 671 Hoàng Hoa Thám, Quận Ba Đình",
    "location": {
      "lat": 21.047595,
      "lng": 105.806502
    }
  },
  {
    "address": "Dự án Artex Building 172 Ngọc Khánh, Quận Ba Đình",
    "location": {
      "lat": 21.0250942,
      "lng": 105.8183668
    }
  },
  {
    "address": "Dự án B1 Giảng Võ, Quận Ba Đình",
    "location": {
      "lat": 21.0298563,
      "lng": 105.8204157
    }
  },
  {
    "address": "Dự án Biển Bắc, Quận Ba Đình",
    "location": {
      "lat": 21.0337815,
      "lng": 105.8140539
    }
  },
  {
    "address": "Dự án BRG Grand Plaza, Quận Ba Đình",
    "location": {
      "lat": 21.0190506,
      "lng": 105.8164087
    }
  },
  {
    "address": "Dự án C7 Giảng Võ, Quận Ba Đình",
    "location": {
      "lat": 21.0270609,
      "lng": 105.8194896
    }
  },
  {
    "address": "Dự án Candeo Hotels Hà Nội, Quận Ba Đình",
    "location": {
      "lat": 21.0337815,
      "lng": 105.8140539
    }
  },
  {
    "address": "Dự án Capital Place, Quận Ba Đình",
    "location": {
      "lat": 21.0317398,
      "lng": 105.8139644
    }
  },
  {
    "address": "Dự án CC Đường Sắt - 35 Láng Hạ, Quận Ba Đình",
    "location": {
      "lat": 21.0189374,
      "lng": 105.8170108
    }
  },
  {
    "address": "Dự án Chung cư 31 Láng Hạ, Quận Ba Đình",
    "location": {
      "lat": 21.0202265,
      "lng": 105.8177244
    }
  },
  {
    "address": "Dự án Chung cư 345 Đội Cấn, Quận Ba Đình",
    "location": {
      "lat": 21.0363746,
      "lng": 105.8165313
    }
  },
  {
    "address": "Dự án Chung cư 379 Đội Cấn, Quận Ba Đình",
    "location": {
      "lat": 21.0382374,
      "lng": 105.8144632
    }
  },
  {
    "address": "Dự án Chung cư C1 Thành Công, Quận Ba Đình",
    "location": {
      "lat": 21.022873,
      "lng": 105.8149917
    }
  },
  {
    "address": "Dự án D2 Giảng Võ, Quận Ba Đình",
    "location": {
      "lat": 21.0270609,
      "lng": 105.8194896
    }
  },
  {
    "address": "Dự án Discovery Central, Quận Ba Đình",
    "location": {
      "lat": 21.0337815,
      "lng": 105.8140539
    }
  },
  {
    "address": "Dự án DMC Tower, Quận Ba Đình",
    "location": {
      "lat": 21.0293937,
      "lng": 105.8102293
    }
  },
  {
    "address": "Dự án Flamingo Tower, Quận Ba Đình",
    "location": {
      "lat": 21.0337815,
      "lng": 105.8140539
    }
  },
  {
    "address": "Dự án Grandeur Palace, Quận Ba Đình",
    "location": {
      "lat": 21.0287691,
      "lng": 105.8256543
    }
  },
  {
    "address": "Dự án Hà Nội Aqua Central, Quận Ba Đình",
    "location": {
      "lat": 21.0443102,
      "lng": 105.8460315
    }
  },
  {
    "address": "Dự án Hà Nội Golden Lake, Quận Ba Đình",
    "location": {
      "lat": 21.0443102,
      "lng": 105.8460315
    }
  },
  {
    "address": "Dự án Hanoi Daewoo Hotel, Quận Ba Đình",
    "location": {
      "lat": 21.030832,
      "lng": 105.8117912
    }
  },
  {
    "address": "Dự án HAREC Building, Quận Ba Đình",
    "location": {
      "lat": 21.0221784,
      "lng": 105.8185779
    }
  },
  {
    "address": "Dự án HITTC Building, Quận Ba Đình",
    "location": {
      "lat": 21.0337815,
      "lng": 105.8140539
    }
  },
  {
    "address": "Dự án Hòa Bình Green Apartment, Quận Ba Đình",
    "location": {
      "lat": 21.0408939,
      "lng": 105.8077944
    }
  },
  {
    "address": "Dự án ITT Building, Quận Ba Đình",
    "location": {
      "lat": 21.0337815,
      "lng": 105.8140539
    }
  },
  {
    "address": "Dự án Lake View Building, Quận Ba Đình",
    "location": {
      "lat": 21.0268329,
      "lng": 105.8205354
    }
  },
  {
    "address": "Dự án Lancaster Hà Nội, Quận Ba Đình",
    "location": {
      "lat": 21.0288244,
      "lng": 105.8236327
    }
  },
  {
    "address": "Dự án Liễu Giai Tower, Quận Ba Đình",
    "location": {
      "lat": 21.0354471,
      "lng": 105.8143189
    }
  },
  {
    "address": "Dự án Lotte Center Hà Nội, Quận Ba Đình",
    "location": {
      "lat": 21.0318905,
      "lng": 105.8120137
    }
  },
  {
    "address": "Dự án Newtatco 21 Láng Hạ, Quận Ba Đình",
    "location": {
      "lat": 21.0209874,
      "lng": 105.8183472
    }
  },
  {
    "address": "Dự án Newtatco Vĩnh Phúc, Quận Ba Đình",
    "location": {
      "lat": 21.0425501,
      "lng": 105.8075192
    }
  },
  {
    "address": "Dự án Ngọc Hà Villas, Quận Ba Đình",
    "location": {
      "lat": 21.0391581,
      "lng": 105.8265964
    }
  },
  {
    "address": "Dự án Ngọc Khánh Plaza, Quận Ba Đình",
    "location": {
      "lat": 21.0262811,
      "lng": 105.8110047
    }
  },
  {
    "address": "Dự án NIKKO, Quận Ba Đình",
    "location": {
      "lat": 21.0337815,
      "lng": 105.8140539
    }
  },
  {
    "address": "Dự án Núi Trúc Square, Quận Ba Đình",
    "location": {
      "lat": 21.0304374,
      "lng": 105.8237152
    }
  },
  {
    "address": "Dự án Platinum Residences, Quận Ba Đình",
    "location": {
      "lat": 21.027233,
      "lng": 105.8169367
    }
  },
  {
    "address": "Dự án Resco Tower, Quận Ba Đình",
    "location": {
      "lat": 21.0337815,
      "lng": 105.8140539
    }
  },
  {
    "address": "Dự án Rose Garden, Quận Ba Đình",
    "location": {
      "lat": 21.0246926,
      "lng": 105.8188065
    }
  },
  {
    "address": "Dự án Skyline Tower, Quận Ba Đình",
    "location": {
      "lat": 21.0432168,
      "lng": 105.8414469
    }
  },
  {
    "address": "Dự án Sun Grand City Văn Cao, Quận Ba Đình",
    "location": {
      "lat": 21.0381469,
      "lng": 105.8155887
    }
  },
  {
    "address": "Dự án Thành Công Tower 57 Láng Hạ, Quận Ba Đình",
    "location": {
      "lat": 21.0192415,
      "lng": 105.8171787
    }
  },
  {
    "address": "Dự án Thành Đông, Quận Ba Đình",
    "location": {
      "lat": 21.0337815,
      "lng": 105.8140539
    }
  },
  {
    "address": "Dự án Thanh Niên Plaza, Quận Ba Đình",
    "location": {
      "lat": 21.0473743,
      "lng": 105.837221
    }
  },
  {
    "address": "Dự án The Golden Armor, Quận Ba Đình",
    "location": {
      "lat": 21.0294524,
      "lng": 105.8213829
    }
  },
  {
    "address": "Dự án TID Tower, Quận Ba Đình",
    "location": {
      "lat": 21.0337815,
      "lng": 105.8140539
    }
  },
  {
    "address": "Dự án Tổ hợp số 5 Thành Công, Quận Ba Đình",
    "location": {
      "lat": 21.0337815,
      "lng": 105.8140539
    }
  },
  {
    "address": "Dự án Toserco Building, Quận Ba Đình",
    "location": {
      "lat": 21.0307264,
      "lng": 105.8201596
    }
  },
  {
    "address": "Dự án Trúc Bạch, Quận Ba Đình",
    "location": {
      "lat": 21.0452531,
      "lng": 105.8415062
    }
  },
  {
    "address": "Dự án Vinhomes Giảng Võ, Quận Ba Đình",
    "location": {
      "lat": 21.0245333,
      "lng": 105.8201458
    }
  },
  {
    "address": "Dự án Vinhomes Metropolis - Liễu Giai, Quận Ba Đình",
    "location": {
      "lat": 21.0311462,
      "lng": 105.8147864
    }
  },
  {
    "address": "Dự án VIT Tower, Quận Ba Đình",
    "location": {
      "lat": 21.0337815,
      "lng": 105.8140539
    }
  },
  {
    "address": "Dự án Ba Vì Lodge, Huyện Ba Vì",
    "location": {
      "lat": 21.197972900000025,
      "lng": 105.42189880000006
    }
  },
  {
    "address": "Dự án Bản Xôi Village, Huyện Ba Vì",
    "location": {
      "lat": 21.022861,
      "lng": 105.4217732
    }
  },
  {
    "address": "Dự án Country House, Huyện Ba Vì",
    "location": {
      "lat": 21.1992298,
      "lng": 105.4232116
    }
  },
  {
    "address": "Dự án Green Villas 4, Huyện Ba Vì",
    "location": {
      "lat": 21.0998592,
      "lng": 105.4253931
    }
  },
  {
    "address": "Dự án Ngọc Viên Islands, Huyện Ba Vì",
    "location": {
      "lat": 21.1992298,
      "lng": 105.4232116
    }
  },
  {
    "address": "Dự án Nine Ivory Eco, Huyện Ba Vì",
    "location": {
      "lat": 21.1992298,
      "lng": 105.4232116
    }
  },
  {
    "address": "Dự án Royal Garden, Huyện Ba Vì",
    "location": {
      "lat": 21.1992298,
      "lng": 105.4232116
    }
  },
  {
    "address": "Dự án Suối Hai Villa, Huyện Ba Vì",
    "location": {
      "lat": 21.1569921,
      "lng": 105.3848449
    }
  },
  {
    "address": "Dự án Tản Viên Villas, Huyện Ba Vì",
    "location": {
      "lat": 20.9882236,
      "lng": 105.7855874
    }
  },
  {
    "address": "Dự án The Grand Arena Hill, Huyện Ba Vì",
    "location": {
      "lat": 21.1992298,
      "lng": 105.4232116
    }
  },
  {
    "address": "Dự án The Queen Villas, Huyện Ba Vì",
    "location": {
      "lat": 21.1992298,
      "lng": 105.4232116
    }
  },
  {
    "address": "Dự án Yên Bài Top Hills, Huyện Ba Vì",
    "location": {
      "lat": 21.0341701,
      "lng": 105.4419546
    }
  },
  {
    "address": "Dự án Yên Bài Villas 2, Huyện Ba Vì",
    "location": {
      "lat": 21.0341701,
      "lng": 105.4419546
    }
  },
  {
    "address": "Dự án 120 Hoàng Quốc Việt BQP, Quận Bắc Từ Liêm",
    "location": {
      "lat": 21.0480426,
      "lng": 105.7921484
    }
  },
  {
    "address": "Dự án An Bình City, Quận Bắc Từ Liêm",
    "location": {
      "lat": 21.0505606,
      "lng": 105.7809186
    }
  },
  {
    "address": "Dự án An Bình Tower, Quận Bắc Từ Liêm",
    "location": {
      "lat": 21.069755,
      "lng": 105.7779028
    }
  },
  {
    "address": "Dự án An Sinh, Quận Bắc Từ Liêm",
    "location": {
      "lat": 21.0730201,
      "lng": 105.7703287
    }
  },
  {
    "address": "Dự án ATS, Quận Bắc Từ Liêm",
    "location": {
      "lat": 21.0730201,
      "lng": 105.7703287
    }
  },
  {
    "address": "Dự án Avenue Garden, Quận Bắc Từ Liêm",
    "location": {
      "lat": 21.0757956,
      "lng": 105.737167
    }
  },
  {
    "address": "Dự án B5 Cầu Diễn, Quận Bắc Từ Liêm",
    "location": {
      "lat": 21.0730201,
      "lng": 105.7703287
    }
  },
  {
    "address": "Dự án C1 C2 Xuân Đỉnh, Quận Bắc Từ Liêm",
    "location": {
      "lat": 21.0750523,
      "lng": 105.8014196
    }
  },
  {
    "address": "Dự án Chung cư 199 Hồ Tùng Mậu, Quận Bắc Từ Liêm",
    "location": {
      "lat": 21.0405018,
      "lng": 105.7640126
    }
  },
  {
    "address": "Dự án Chung cư 789 Xuân Đỉnh, Quận Bắc Từ Liêm",
    "location": {
      "lat": 21.069341,
      "lng": 105.7969483
    }
  },
  {
    "address": "Dự án Chung cư Han Jardin, Quận Bắc Từ Liêm",
    "location": {
      "lat": 21.0661396,
      "lng": 105.8050346
    }
  },
  {
    "address": "Dự án Chung cư Tây Tựu BQP, Quận Bắc Từ Liêm",
    "location": {
      "lat": 21.0779912,
      "lng": 105.7270586
    }
  },
  {
    "address": "Dự án CT2A Nghĩa Đô, Quận Bắc Từ Liêm",
    "location": {
      "lat": 21.057502,
      "lng": 105.7773369
    }
  },
  {
    "address": "Dự án CT2B Nghĩa Đô, Quận Bắc Từ Liêm",
    "location": {
      "lat": 21.0514845,
      "lng": 105.7931509
    }
  },
  {
    "address": "Dự án CT3 Cổ Nhuế, Quận Bắc Từ Liêm",
    "location": {
      "lat": 21.057502,
      "lng": 105.7773369
    }
  },
  {
    "address": "Dự án Diamond Goldmark City, Quận Bắc Từ Liêm",
    "location": {
      "lat": 21.0432621,
      "lng": 105.7670273
    }
  },
  {
    "address": "Dự án Ecohome 1, Quận Bắc Từ Liêm",
    "location": {
      "lat": 21.0865268,
      "lng": 105.7822278
    }
  },
  {
    "address": "Dự án Ecohome 2, Quận Bắc Từ Liêm",
    "location": {
      "lat": 21.0837558,
      "lng": 105.7836724
    }
  },
  {
    "address": "Dự án Ecohome 3, Quận Bắc Từ Liêm",
    "location": {
      "lat": 21.0849083,
      "lng": 105.7848758
    }
  },
  {
    "address": "Dự án Embassy Garden, Quận Bắc Từ Liêm",
    "location": {
      "lat": 21.0757956,
      "lng": 105.737167
    }
  },
  {
    "address": "Dự án Goldmark City, Quận Bắc Từ Liêm",
    "location": {
      "lat": 21.0432621,
      "lng": 105.7670273
    }
  },
  {
    "address": "Dự án Green Planet, Quận Bắc Từ Liêm",
    "location": {
      "lat": 21.0730201,
      "lng": 105.7703287
    }
  },
  {
    "address": "Dự án Green Stars, Quận Bắc Từ Liêm",
    "location": {
      "lat": 21.052248,
      "lng": 105.7807768
    }
  },
  {
    "address": "Dự án Habico Tower, Quận Bắc Từ Liêm",
    "location": {
      "lat": 21.0544732,
      "lng": 105.7821382
    }
  },
  {
    "address": "Dự án Hanhud Hoàng Quốc Việt, Quận Bắc Từ Liêm",
    "location": {
      "lat": 21.0496766,
      "lng": 105.78418
    }
  },
  {
    "address": "Dự án IA20 Ciputra, Quận Bắc Từ Liêm",
    "location": {
      "lat": 21.0857148,
      "lng": 105.7877867
    }
  },
  {
    "address": "Dự án Intracom 2 Cầu Diễn, Quận Bắc Từ Liêm",
    "location": {
      "lat": 21.0422325,
      "lng": 105.759027
    }
  },
  {
    "address": "Dự án Intracom 3, Quận Bắc Từ Liêm",
    "location": {
      "lat": 21.0421505,
      "lng": 105.759011
    }
  },
  {
    "address": "Dự án KCN Nam Thăng Long, Quận Bắc Từ Liêm",
    "location": {
      "lat": 21.0730201,
      "lng": 105.7703287
    }
  },
  {
    "address": "Dự án KĐT Cổ Nhuế, Quận Bắc Từ Liêm",
    "location": {
      "lat": 21.0521357,
      "lng": 105.7842685
    }
  },
  {
    "address": "Dự án Khu Ngoại Giao Đoàn, Quận Bắc Từ Liêm",
    "location": {
      "lat": 21.0660289,
      "lng": 105.7982094
    }
  },
  {
    "address": "Dự án Kim Cương Xuân Đỉnh, Quận Bắc Từ Liêm",
    "location": {
      "lat": 21.0739704,
      "lng": 105.790872
    }
  },
  {
    "address": "Dự án Kosmo Tây Hồ, Quận Bắc Từ Liêm",
    "location": {
      "lat": 21.0684745,
      "lng": 105.802459
    }
  },
  {
    "address": "Dự án Leadvisors Tower, Quận Bắc Từ Liêm",
    "location": {
      "lat": 21.0498901,
      "lng": 105.7822943
    }
  },
  {
    "address": "Dự án Long Giang Tower, Quận Bắc Từ Liêm",
    "location": {
      "lat": 21.0730201,
      "lng": 105.7703287
    }
  },
  {
    "address": "Dự án Megastar Tây Hồ, Quận Bắc Từ Liêm",
    "location": {
      "lat": 21.0730201,
      "lng": 105.7703287
    }
  },
  {
    "address": "Dự án Mùa Xuân, Quận Bắc Từ Liêm",
    "location": {
      "lat": 21.0730201,
      "lng": 105.7703287
    }
  },
  {
    "address": "Dự án N01-T1 Ngoại Giao Đoàn, Quận Bắc Từ Liêm",
    "location": {
      "lat": 21.0630111,
      "lng": 105.7970297
    }
  },
  {
    "address": "Dự án N01-T2 Ngoại Giao Đoàn, Quận Bắc Từ Liêm",
    "location": {
      "lat": 21.0630111,
      "lng": 105.7970297
    }
  },
  {
    "address": "Dự án N01-T3 Ngoại Giao Đoàn, Quận Bắc Từ Liêm",
    "location": {
      "lat": 21.0631402,
      "lng": 105.794796
    }
  },
  {
    "address": "Dự án N01-T4 Ngoại Giao Đoàn, Quận Bắc Từ Liêm",
    "location": {
      "lat": 21.0630111,
      "lng": 105.7970297
    }
  },
  {
    "address": "Dự án N01-T5 Ngoại Giao Đoàn, Quận Bắc Từ Liêm",
    "location": {
      "lat": 21.0628085,
      "lng": 105.796813
    }
  },
  {
    "address": "Dự án N01-T6 Ngoại Giao Đoàn, Quận Bắc Từ Liêm",
    "location": {
      "lat": 21.0639934,
      "lng": 105.7972412
    }
  },
  {
    "address": "Dự án N01-T7 Ngoại Giao Đoàn, Quận Bắc Từ Liêm",
    "location": {
      "lat": 21.0630675,
      "lng": 105.7972645
    }
  },
  {
    "address": "Dự án N01-T8 Ngoại Giao Đoàn, Quận Bắc Từ Liêm",
    "location": {
      "lat": 21.0637374,
      "lng": 105.7965957
    }
  },
  {
    "address": "Dự án N02-T1 Ngoại Giao Đoàn, Quận Bắc Từ Liêm",
    "location": {
      "lat": 21.0630111,
      "lng": 105.7970297
    }
  },
  {
    "address": "Dự án N02-T2 Ngoại Giao Đoàn, Quận Bắc Từ Liêm",
    "location": {
      "lat": 21.0630111,
      "lng": 105.7970297
    }
  },
  {
    "address": "Dự án N02-T3 Ngoại Giao Đoàn, Quận Bắc Từ Liêm",
    "location": {
      "lat": 21.0630111,
      "lng": 105.7970297
    }
  },
  {
    "address": "Dự án N03-T1 Ngoại Giao Đoàn, Quận Bắc Từ Liêm",
    "location": {
      "lat": 21.0630111,
      "lng": 105.7970297
    }
  },
  {
    "address": "Dự án N03-T2 Ngoại Giao Đoàn, Quận Bắc Từ Liêm",
    "location": {
      "lat": 21.0630111,
      "lng": 105.7970297
    }
  },
  {
    "address": "Dự án N03-T3&amp;T4 Ngoại Giao Đoàn, Quận Bắc Từ Liêm",
    "location": {
      "lat": 10.8035284,
      "lng": 106.746702
    }
  },
  {
    "address": "Dự án N03-T5 Ngoại Giao Đoàn, Quận Bắc Từ Liêm",
    "location": {
      "lat": 21.0644971,
      "lng": 105.7993467
    }
  },
  {
    "address": "Dự án N03-T6 Ngoại Giao Đoàn, Quận Bắc Từ Liêm",
    "location": {
      "lat": 21.0642034,
      "lng": 105.8001734
    }
  },
  {
    "address": "Dự án N03-T7 Ngoại Giao Đoàn, Quận Bắc Từ Liêm",
    "location": {
      "lat": 21.0646849,
      "lng": 105.8005496
    }
  },
  {
    "address": "Dự án N03-T8 Ngoại Giao Đoàn, Quận Bắc Từ Liêm",
    "location": {
      "lat": 21.0651947,
      "lng": 105.800319
    }
  },
  {
    "address": "Dự án N04A Ngoại Giao Đoàn, Quận Bắc Từ Liêm",
    "location": {
      "lat": 21.0661576,
      "lng": 105.8010908
    }
  },
  {
    "address": "Dự án N04B Ngoại Giao Đoàn, Quận Bắc Từ Liêm",
    "location": {
      "lat": 21.0630111,
      "lng": 105.7970297
    }
  },
  {
    "address": "Dự án Nghĩa Đô, Quận Bắc Từ Liêm",
    "location": {
      "lat": 21.0730201,
      "lng": 105.7703287
    }
  },
  {
    "address": "Dự án Nhà ở cán bộ nhân viên TP. Hà Nội, Quận Bắc Từ Liêm",
    "location": {
      "lat": 21.0730201,
      "lng": 105.7703287
    }
  },
  {
    "address": "Dự án Nhà ở cho CBCS Bộ Công an, Quận Bắc Từ Liêm",
    "location": {
      "lat": 21.0411431,
      "lng": 105.7549078
    }
  },
  {
    "address": "Dự án Resco Cổ Nhuế, Quận Bắc Từ Liêm",
    "location": {
      "lat": 21.0576943,
      "lng": 105.7791327
    }
  },
  {
    "address": "Dự án Scitech Tower, Quận Bắc Từ Liêm",
    "location": {
      "lat": 21.0415787,
      "lng": 105.765979
    }
  },
  {
    "address": "Dự án Sunshine Capital Tây Thăng Long, Quận Bắc Từ Liêm",
    "location": {
      "lat": 21.0730201,
      "lng": 105.7703287
    }
  },
  {
    "address": "Dự án Sunshine City, Quận Bắc Từ Liêm",
    "location": {
      "lat": 21.0854755,
      "lng": 105.792304
    }
  },
  {
    "address": "Dự án Sunshine Empire{\" \"}, Quận Bắc Từ Liêm",
    "location": {
      "lat": 21.0849969,
      "lng": 105.7916373
    }
  },
  {
    "address": "Dự án Sunshine Wonder Villas, Quận Bắc Từ Liêm",
    "location": {
      "lat": 21.0849969,
      "lng": 105.7916373
    }
  },
  {
    "address": "Dự án Thành Phố Giao Lưu, Quận Bắc Từ Liêm",
    "location": {
      "lat": 21.0505876,
      "lng": 105.7776653
    }
  },
  {
    "address": "Dự án The Jade Orchid, Quận Bắc Từ Liêm",
    "location": {
      "lat": 21.0752853,
      "lng": 105.782804
    }
  },
  {
    "address": "Dự án The Link 345-CT1, Quận Bắc Từ Liêm",
    "location": {
      "lat": 21.0505229,
      "lng": 105.7840851
    }
  },
  {
    "address": "Dự án Tổng cục 5 Bộ Công An, Quận Bắc Từ Liêm",
    "location": {
      "lat": 21.0730201,
      "lng": 105.7703287
    }
  },
  {
    "address": "Dự án VC7 Housing Complex - 136 Hồ Tùng Mậu, Quận Bắc Từ Liêm",
    "location": {
      "lat": 21.0424195,
      "lng": 105.7662308
    }
  },
  {
    "address": "Dự án Vibex Từ Liêm, Quận Bắc Từ Liêm",
    "location": {
      "lat": 21.0859898,
      "lng": 105.7753208
    }
  },
  {
    "address": "Dự án 113 Trung Kính, Quận Cầu Giấy",
    "location": {
      "lat": 21.0138918,
      "lng": 105.7970895
    }
  },
  {
    "address": "Dự án 151 Hoàng Quốc Việt, Quận Cầu Giấy",
    "location": {
      "lat": 21.046077,
      "lng": 105.7972444
    }
  },
  {
    "address": "Dự án 169 Nguyễn Ngọc Vũ, Quận Cầu Giấy",
    "location": {
      "lat": 21.0123498,
      "lng": 105.807386
    }
  },
  {
    "address": "Dự án 173 Xuân Thủy, Quận Cầu Giấy",
    "location": {
      "lat": 21.0362567,
      "lng": 105.785141
    }
  },
  {
    "address": "Dự án 2T Corporation, Quận Cầu Giấy",
    "location": {
      "lat": 21.0404421,
      "lng": 105.7807177
    }
  },
  {
    "address": "Dự án 30 Phạm Văn Đồng, Quận Cầu Giấy",
    "location": {
      "lat": 21.0436561,
      "lng": 105.7816495
    }
  },
  {
    "address": "Dự án 335 Cầu Giấy, Quận Cầu Giấy",
    "location": {
      "lat": 21.0355022,
      "lng": 105.7918689
    }
  },
  {
    "address": "Dự án 789 Bộ Quốc Phòng - 147 Hoàng Quốc Việt, Quận Cầu Giấy",
    "location": {
      "lat": 21.0459162,
      "lng": 105.7998029
    }
  },
  {
    "address": "Dự án 95 Cầu Giấy, Quận Cầu Giấy",
    "location": {
      "lat": 21.0311213,
      "lng": 105.7999604
    }
  },
  {
    "address": "Dự án A10-A14 Nam Trung Yên, Quận Cầu Giấy",
    "location": {
      "lat": 21.0157795,
      "lng": 105.7885969
    }
  },
  {
    "address": "Dự án AC Building, Quận Cầu Giấy",
    "location": {
      "lat": 21.0324045,
      "lng": 105.7830821
    }
  },
  {
    "address": "Dự án An Lạc - Hoàng Ngân, Quận Cầu Giấy",
    "location": {
      "lat": 21.0081496,
      "lng": 105.8011438
    }
  },
  {
    "address": "Dự án Âu Việt Building, Quận Cầu Giấy",
    "location": {
      "lat": 21.0374662,
      "lng": 105.7718624
    }
  },
  {
    "address": "Dự án AZ Lâm Viên Complex, Quận Cầu Giấy",
    "location": {
      "lat": 21.0409199,
      "lng": 105.7901571
    }
  },
  {
    "address": "Dự án Bamboo Airways Tower, Quận Cầu Giấy",
    "location": {
      "lat": 21.034474,
      "lng": 105.7952316
    }
  },
  {
    "address": "Dự án Bảo Anh Building, Quận Cầu Giấy",
    "location": {
      "lat": 21.0319255,
      "lng": 105.7887167
    }
  },
  {
    "address": "Dự án Belleville Hà Nội, Quận Cầu Giấy",
    "location": {
      "lat": 21.0135913,
      "lng": 105.8034834
    }
  },
  {
    "address": "Dự án Cầu Giấy Center Point, Quận Cầu Giấy",
    "location": {
      "lat": 21.0321335,
      "lng": 105.7996137
    }
  },
  {
    "address": "Dự án CC1 Hà Đô Parkside, Quận Cầu Giấy",
    "location": {
      "lat": 21.0320787,
      "lng": 105.7917535
    }
  },
  {
    "address": "Dự án Central Field Trung Kính, Quận Cầu Giấy",
    "location": {
      "lat": 21.0168067,
      "lng": 105.7940437
    }
  },
  {
    "address": "Dự án Charmvit Tower, Quận Cầu Giấy",
    "location": {
      "lat": 21.0082101,
      "lng": 105.7979067
    }
  },
  {
    "address": "Dự án Chelsea Park, Quận Cầu Giấy",
    "location": {
      "lat": 21.0189999,
      "lng": 105.793499
    }
  },
  {
    "address": "Dự án Chelsea Residences, Quận Cầu Giấy",
    "location": {
      "lat": 21.0135913,
      "lng": 105.8034834
    }
  },
  {
    "address": "Dự án Chung cư 60 Hoàng Quốc Việt, Quận Cầu Giấy",
    "location": {
      "lat": 21.0475866,
      "lng": 105.796981
    }
  },
  {
    "address": "Dự án CIC Tower, Quận Cầu Giấy",
    "location": {
      "lat": 21.0193347,
      "lng": 105.7910315
    }
  },
  {
    "address": "Dự án CMC Tower, Quận Cầu Giấy",
    "location": {
      "lat": 21.0304203,
      "lng": 105.7843627
    }
  },
  {
    "address": "Dự án Constrexim Complex, Quận Cầu Giấy",
    "location": {
      "lat": 21.0220089,
      "lng": 105.7875755
    }
  },
  {
    "address": "Dự án CT4 Vimeco II, Quận Cầu Giấy",
    "location": {
      "lat": 21.009118,
      "lng": 105.7933688
    }
  },
  {
    "address": "Dự án CT6 Constrexim Yên Hòa, Quận Cầu Giấy",
    "location": {
      "lat": 21.0237851,
      "lng": 105.788328
    }
  },
  {
    "address": "Dự án CTM 299 Cầu Giấy, Quận Cầu Giấy",
    "location": {
      "lat": 21.0346433,
      "lng": 105.7934859
    }
  },
  {
    "address": "Dự án CTM Building 139 Cầu Giấy, Quận Cầu Giấy",
    "location": {
      "lat": 21.0317833,
      "lng": 105.7990578
    }
  },
  {
    "address": "Dự án D'. Palais De Louis - Nguyễn Văn Huyên, Quận Cầu Giấy",
    "location": {
      "lat": 21.0409779,
      "lng": 105.7979938
    }
  },
  {
    "address": "Dự án D11 Sunrise Building, Quận Cầu Giấy",
    "location": {
      "lat": 21.0305719,
      "lng": 105.7877078
    }
  },
  {
    "address": "Dự án D22 Bộ Tư Lệnh Biên Phòng, Quận Cầu Giấy",
    "location": {
      "lat": 21.0362368,
      "lng": 105.7905825
    }
  },
  {
    "address": "Dự án Đại Phát Building, Quận Cầu Giấy",
    "location": {
      "lat": 21.0318605,
      "lng": 105.7827163
    }
  },
  {
    "address": "Dự án Detech Tower II, Quận Cầu Giấy",
    "location": {
      "lat": 21.0408429,
      "lng": 105.7901924
    }
  },
  {
    "address": "Dự án Diamond Building, Quận Cầu Giấy",
    "location": {
      "lat": 21.0362368,
      "lng": 105.7905825
    }
  },
  {
    "address": "Dự án Discovery Complex, Quận Cầu Giấy",
    "location": {
      "lat": 21.0355429,
      "lng": 105.7940529
    }
  },
  {
    "address": "Dự án Đông Đô, Quận Cầu Giấy",
    "location": {
      "lat": 21.0362368,
      "lng": 105.7905825
    }
  },
  {
    "address": "Dự án Đông Nam Trần Duy Hưng, Quận Cầu Giấy",
    "location": {
      "lat": 21.0135913,
      "lng": 105.8034834
    }
  },
  {
    "address": "Dự án ĐTM Dịch Vọng, Quận Cầu Giấy",
    "location": {
      "lat": 21.0347067,
      "lng": 105.7923394
    }
  },
  {
    "address": "Dự án Elinco, Quận Cầu Giấy",
    "location": {
      "lat": 21.0431338,
      "lng": 105.7996005
    }
  },
  {
    "address": "Dự án Epic Tower, Quận Cầu Giấy",
    "location": {
      "lat": 21.0302852,
      "lng": 105.7815065
    }
  },
  {
    "address": "Dự án Eurowindow Multi Complex, Quận Cầu Giấy",
    "location": {
      "lat": 21.0137708,
      "lng": 105.8035765
    }
  },
  {
    "address": "Dự án Grand Plaza, Quận Cầu Giấy",
    "location": {
      "lat": 21.0074302,
      "lng": 105.7968181
    }
  },
  {
    "address": "Dự án Golden Park Tower, Quận Cầu Giấy",
    "location": {
      "lat": 21.0362368,
      "lng": 105.7905825
    }
  },
  {
    "address": "Dự án Five Star Resident, Quận Cầu Giấy",
    "location": {
      "lat": 21.014933,
      "lng": 105.8023183
    }
  },
  {
    "address": "Dự án FPT Cầu Giấy, Quận Cầu Giấy",
    "location": {
      "lat": 21.0308333,
      "lng": 105.7827778
    }
  },
  {
    "address": "Dự án Green Park Tower, Quận Cầu Giấy",
    "location": {
      "lat": 21.0223807,
      "lng": 105.7866444
    }
  },
  {
    "address": "Dự án Ha Do Park View, Quận Cầu Giấy",
    "location": {
      "lat": 21.0272604,
      "lng": 105.7936594
    }
  },
  {
    "address": "Dự án Hoa Binh International, Quận Cầu Giấy",
    "location": {
      "lat": 20.8142968,
      "lng": 105.3502879
    }
  },
  {
    "address": "Dự án Hà Nội Paragon, Quận Cầu Giấy",
    "location": {
      "lat": 21.0332185,
      "lng": 105.7818553
    }
  },
  {
    "address": "Dự án Hoàng Ngân Plaza, Quận Cầu Giấy",
    "location": {
      "lat": 21.0081496,
      "lng": 105.8011438
    }
  },
  {
    "address": "Dự án HDI Homes Vũ Phạm Hàm, Quận Cầu Giấy",
    "location": {
      "lat": 21.0152146,
      "lng": 105.7968781
    }
  },
  {
    "address": "Dự án Hoàng Linh Building, Quận Cầu Giấy",
    "location": {
      "lat": 21.007081337000045,
      "lng": 105.80058646500004
    }
  },
  {
    "address": "Dự án Indochina Plaza, Quận Cầu Giấy",
    "location": {
      "lat": 21.0362368,
      "lng": 105.7905825
    }
  },
  {
    "address": "Dự án Housing, Quận Cầu Giấy",
    "location": {
      "lat": 21.0295361,
      "lng": 105.784961
    }
  },
  {
    "address": "Dự án Home City - Trung Kính Complex, Quận Cầu Giấy",
    "location": {
      "lat": 21.0161278,
      "lng": 105.7926129
    }
  },
  {
    "address": "Dự án Intracom, Quận Cầu Giấy",
    "location": {
      "lat": 21.0294636,
      "lng": 105.785419
    }
  },
  {
    "address": "Dự án KĐT mới Cầu Giấy, Quận Cầu Giấy",
    "location": {
      "lat": 21.0362368,
      "lng": 105.7905825
    }
  },
  {
    "address": "Dự án KĐT Trung Yên, Quận Cầu Giấy",
    "location": {
      "lat": 21.0140432,
      "lng": 105.7886708
    }
  },
  {
    "address": "Dự án Liền kề Phố Wall, Quận Cầu Giấy",
    "location": {
      "lat": 21.0362368,
      "lng": 105.7905825
    }
  },
  {
    "address": "Dự án Khu nhà ở HV Tư pháp, Quận Cầu Giấy",
    "location": {
      "lat": 21.0457358,
      "lng": 105.774097
    }
  },
  {
    "address": "Dự án LOD Building, Quận Cầu Giấy",
    "location": {
      "lat": 21.0362368,
      "lng": 105.7905825
    }
  },
  {
    "address": "Dự án Khu Nhà ở KD Dịch Vọng, Quận Cầu Giấy",
    "location": {
      "lat": 21.0347067,
      "lng": 105.7923394
    }
  },
  {
    "address": "Dự án Luxury Park Views, Quận Cầu Giấy",
    "location": {
      "lat": 21.0256179,
      "lng": 105.7913339
    }
  },
  {
    "address": "Dự án Mandarin Garden, Quận Cầu Giấy",
    "location": {
      "lat": 21.0135913,
      "lng": 105.8034834
    }
  },
  {
    "address": "Dự án Làng Quốc tế Thăng Long, Quận Cầu Giấy",
    "location": {
      "lat": 21.0393813,
      "lng": 105.7927063
    }
  },
  {
    "address": "Dự án Maple Tower, Quận Cầu Giấy",
    "location": {
      "lat": 21.0362368,
      "lng": 105.7905825
    }
  },
  {
    "address": "Dự án Maslight High-Tech Center, Quận Cầu Giấy",
    "location": {
      "lat": 21.0362368,
      "lng": 105.7905825
    }
  },
  {
    "address": "Dự án MB Grand Tower, Quận Cầu Giấy",
    "location": {
      "lat": 21.0075156,
      "lng": 105.8075224
    }
  },
  {
    "address": "Dự án Mipec Rubik 360, Quận Cầu Giấy",
    "location": {
      "lat": 21.0402488,
      "lng": 105.7900698
    }
  },
  {
    "address": "Dự án Royal Lotus Complex, Quận Cầu Giấy",
    "location": {
      "lat": 21.0135913,
      "lng": 105.8034834
    }
  },
  {
    "address": "Dự án Mitec Tower, Quận Cầu Giấy",
    "location": {
      "lat": 21.015788546000067,
      "lng": 105.79436154700005
    }
  },
  {
    "address": "Dự án N01-D17 Duy Tân, Quận Cầu Giấy",
    "location": {
      "lat": 21.031217689000073,
      "lng": 105.78320099700005
    }
  },
  {
    "address": "Dự án N04 Trần Duy Hưng, Quận Cầu Giấy",
    "location": {
      "lat": 21.0135913,
      "lng": 105.8034834
    }
  },
  {
    "address": "Dự án N05 Trần Duy Hưng, Quận Cầu Giấy",
    "location": {
      "lat": 21.0135913,
      "lng": 105.8034834
    }
  },
  {
    "address": "Dự án Somerset Hòa Bình, Quận Cầu Giấy",
    "location": {
      "lat": 21.0465006,
      "lng": 105.7953953
    }
  },
  {
    "address": "Dự án N105 Nguyễn Phong Sắc, Quận Cầu Giấy",
    "location": {
      "lat": 16.461793,
      "lng": 107.6020552
    }
  },
  {
    "address": "Dự án Nam Trung Yên, Quận Cầu Giấy",
    "location": {
      "lat": 21.0140432,
      "lng": 105.7886708
    }
  },
  {
    "address": "Dự án Park View City, Quận Cầu Giấy",
    "location": {
      "lat": 21.0272604,
      "lng": 105.7936594
    }
  },
  {
    "address": "Dự án PV Oil 148 Hoàng Quốc Việt, Quận Cầu Giấy",
    "location": {
      "lat": 21.04663,
      "lng": 105.790601
    }
  },
  {
    "address": "Dự án PVI Tower, Quận Cầu Giấy",
    "location": {
      "lat": 21.0241122,
      "lng": 105.7889427
    }
  },
  {
    "address": "Dự án Star Tower, Quận Cầu Giấy",
    "location": {
      "lat": 21.0249232,
      "lng": 105.7912994
    }
  },
  {
    "address": "Dự án Summit Building, Quận Cầu Giấy",
    "location": {
      "lat": 21.0135913,
      "lng": 105.8034834
    }
  },
  {
    "address": "Dự án Richland Southern, Quận Cầu Giấy",
    "location": {
      "lat": 21.0359166,
      "lng": 105.7835766
    }
  },
  {
    "address": "Dự án Tây Nam Đại học Thương Mại, Quận Cầu Giấy",
    "location": {
      "lat": 20.9973913,
      "lng": 106.3314182
    }
  },
  {
    "address": "Dự án Thăng Long Number One, Quận Cầu Giấy",
    "location": {
      "lat": 21.0024314,
      "lng": 105.7927063
    }
  },
  {
    "address": "Dự án San Nam, Quận Cầu Giấy",
    "location": {
      "lat": 21.0362368,
      "lng": 105.7905825
    }
  },
  {
    "address": "Dự án The Nine, Quận Cầu Giấy",
    "location": {
      "lat": 21.0407529,
      "lng": 105.7804757
    }
  },
  {
    "address": "Dự án Sky Park Residence, Quận Cầu Giấy",
    "location": {
      "lat": 21.0272458,
      "lng": 105.7860111
    }
  },
  {
    "address": "Dự án The Park Home, Quận Cầu Giấy",
    "location": {
      "lat": 21.0362368,
      "lng": 105.7905825
    }
  },
  {
    "address": "Dự án The Premier Hà Nội, Quận Cầu Giấy",
    "location": {
      "lat": 21.0362368,
      "lng": 105.7905825
    }
  },
  {
    "address": "Dự án SkyView Trần Thái Tông, Quận Cầu Giấy",
    "location": {
      "lat": 21.031792,
      "lng": 105.7884835
    }
  },
  {
    "address": "Dự án TIG Tower (ThangLong Royal Plaza), Quận Cầu Giấy",
    "location": {
      "lat": 21.0362368,
      "lng": 105.7905825
    }
  },
  {
    "address": "Dự án Sông Đà 7, Quận Cầu Giấy",
    "location": {
      "lat": 21.0362368,
      "lng": 105.7905825
    }
  },
  {
    "address": "Dự án Tòa nhà 3A, Quận Cầu Giấy",
    "location": {
      "lat": 21.007081337000045,
      "lng": 105.80058646500004
    }
  },
  {
    "address": "Dự án Tòa nhà Reeco, Quận Cầu Giấy",
    "location": {
      "lat": 21.0362368,
      "lng": 105.7905825
    }
  },
  {
    "address": "Dự án Tràng An Complex, Quận Cầu Giấy",
    "location": {
      "lat": 21.044011,
      "lng": 105.8028368
    }
  },
  {
    "address": "Dự án Trung Hòa Nhân Chính, Quận Cầu Giấy",
    "location": {
      "lat": 21.0101531,
      "lng": 105.7988345
    }
  },
  {
    "address": "Dự án Trung Yên I, Quận Cầu Giấy",
    "location": {
      "lat": 21.0126545,
      "lng": 105.7908672
    }
  },
  {
    "address": "Dự án Trung Yên Plaza, Quận Cầu Giấy",
    "location": {
      "lat": 21.0138151,
      "lng": 105.8018378
    }
  },
  {
    "address": "Dự án TTC Tower, Quận Cầu Giấy",
    "location": {
      "lat": 21.0308721,
      "lng": 105.7821516
    }
  },
  {
    "address": "Dự án Việt Á Tower, Quận Cầu Giấy",
    "location": {
      "lat": 21.030397,
      "lng": 105.784773
    }
  },
  {
    "address": "Dự án Vietracimex Tower, Quận Cầu Giấy",
    "location": {
      "lat": 21.0362368,
      "lng": 105.7905825
    }
  },
  {
    "address": "Dự án Viglacera - Exim Building, Quận Cầu Giấy",
    "location": {
      "lat": 21.0464906,
      "lng": 105.8048998
    }
  },
  {
    "address": "Dự án Vinaconex 1, Quận Cầu Giấy",
    "location": {
      "lat": 21.0362368,
      "lng": 105.7905825
    }
  },
  {
    "address": "Dự án Vimeco I - Phạm Hùng, Quận Cầu Giấy",
    "location": {
      "lat": 21.0086643,
      "lng": 105.7903375
    }
  },
  {
    "address": "Dự án Vimeco II - Nguyễn Chánh, Quận Cầu Giấy",
    "location": {
      "lat": 21.0087081,
      "lng": 105.7945381
    }
  },
  {
    "address": "Dự án Vinahud, Quận Cầu Giấy",
    "location": {
      "lat": 21.0135913,
      "lng": 105.8034834
    }
  },
  {
    "address": "Dự án Vinata Tower, Quận Cầu Giấy",
    "location": {
      "lat": 21.015788546000067,
      "lng": 105.79436154700005
    }
  },
  {
    "address": "Dự án Vinhomes D'Capitale, Quận Cầu Giấy",
    "location": {
      "lat": 21.0362368,
      "lng": 105.7905825
    }
  },
  {
    "address": "Dự án VMT Building, Quận Cầu Giấy",
    "location": {
      "lat": 21.0326612,
      "lng": 105.7820639
    }
  },
  {
    "address": "Dự án Watermark Tây Hồ, Quận Cầu Giấy",
    "location": {
      "lat": 21.0519347,
      "lng": 105.8084708
    }
  },
  {
    "address": "Dự án Yên Hòa, Quận Cầu Giấy",
    "location": {
      "lat": 21.0218044,
      "lng": 105.790872
    }
  },
  {
    "address": "Dự án Yên Hòa Condominium, Quận Cầu Giấy",
    "location": {
      "lat": 21.020026,
      "lng": 105.7931736
    }
  },
  {
    "address": "Dự án Yên Hòa Thăng Long, Quận Cầu Giấy",
    "location": {
      "lat": 21.0218044,
      "lng": 105.790872
    }
  },
  {
    "address": "Dự án Zodiac Building, Quận Cầu Giấy",
    "location": {
      "lat": 21.0308313,
      "lng": 105.7820506
    }
  },
  {
    "address": "Dự án Chung cư 11T2 Xuân Mai, Huyện Chương Mỹ",
    "location": {
      "lat": 10.8654062,
      "lng": 106.7269339
    }
  },
  {
    "address": "Dự án KĐT The Spring Town Xuân Mai, Huyện Chương Mỹ",
    "location": {
      "lat": 20.9191918,
      "lng": 105.5733152
    }
  },
  {
    "address": "Dự án Làng Thời Đại, Huyện Chương Mỹ",
    "location": {
      "lat": 20.8746466,
      "lng": 105.6712465
    }
  },
  {
    "address": "Dự án Lộc Ninh Singashine, Huyện Chương Mỹ",
    "location": {
      "lat": 20.925911,
      "lng": 105.711647
    }
  },
  {
    "address": "Dự án Phú Nghĩa, Huyện Chương Mỹ",
    "location": {
      "lat": 20.9359513,
      "lng": 105.6559158
    }
  },
  {
    "address": "Dự án Wyndham Sky Lake Resort &amp; Villas, Huyện Chương Mỹ",
    "location": {
      "lat": 20.8347957,
      "lng": 105.6204669
    }
  },
  {
    "address": "Dự án Phúc Thịnh Tower, Huyện Đan Phượng",
    "location": {
      "lat": 21.084855,
      "lng": 105.6690963
    }
  },
  {
    "address": "Dự án Tân lập, Huyện Đan Phượng",
    "location": {
      "lat": 21.0811921,
      "lng": 105.7145801
    }
  },
  {
    "address": "Dự án Tân Lập Cienco 5, Huyện Đan Phượng",
    "location": {
      "lat": 21.0968789,
      "lng": 105.7092404
    }
  },
  {
    "address": "Dự án Tân Tây Đô, Huyện Đan Phượng",
    "location": {
      "lat": 21.0772955,
      "lng": 105.7021123
    }
  },
  {
    "address": "Dự án The Phoenix Garden, Huyện Đan Phượng",
    "location": {
      "lat": 21.0932152,
      "lng": 105.6809181
    }
  },
  {
    "address": "Dự án Vinhomes Wonder Park, Huyện Đan Phượng",
    "location": {
      "lat": 21.0968789,
      "lng": 105.7092404
    }
  },
  {
    "address": "Dự án xpHOMES, Huyện Đan Phượng",
    "location": {
      "lat": 21.0745225,
      "lng": 105.7009416
    }
  },
  {
    "address": "Dự án Đông Anh, Huyện Đông Anh",
    "location": {
      "lat": 21.135031885000046,
      "lng": 105.86252035100006
    }
  },
  {
    "address": "Dự án Calyx Residence, Huyện Đông Anh",
    "location": {
      "lat": 21.1329574,
      "lng": 105.8625411
    }
  },
  {
    "address": "Dự án Eurowindow River Park, Huyện Đông Anh",
    "location": {
      "lat": 21.0772714,
      "lng": 105.8751054
    }
  },
  {
    "address": "Dự án Green Link City, Huyện Đông Anh",
    "location": {
      "lat": 21.135031885000046,
      "lng": 105.86252035100006
    }
  },
  {
    "address": "Dự án Happy Land Đông Anh, Huyện Đông Anh",
    "location": {
      "lat": 21.1673437,
      "lng": 105.8467369
    }
  },
  {
    "address": "Dự án Intracom Riverside, Huyện Đông Anh",
    "location": {
      "lat": 21.1127062,
      "lng": 105.8284077
    }
  },
  {
    "address": "Dự án Helianthus Center Red River, Huyện Đông Anh",
    "location": {
      "lat": 21.1499745,
      "lng": 105.8361669
    }
  },
  {
    "address": "Dự án Nam Hồng, Huyện Đông Anh",
    "location": {
      "lat": 21.135031885000046,
      "lng": 105.86252035100006
    }
  },
  {
    "address": "Dự án Vinhomes Cổ Loa, Huyện Đông Anh",
    "location": {
      "lat": 21.0861371,
      "lng": 105.8608864
    }
  },
  {
    "address": "Dự án Thăng Long Green City, Huyện Đông Anh",
    "location": {
      "lat": 20.98152600000003,
      "lng": 105.88999600000005
    }
  },
  {
    "address": "Dự án Villa Avenue Vân Trì, Huyện Đông Anh",
    "location": {
      "lat": 21.1388922,
      "lng": 105.8138178
    }
  },
  {
    "address": "Dự án 101 Láng Hạ, Quận Đống Đa",
    "location": {
      "lat": 21.0153717,
      "lng": 105.8128851
    }
  },
  {
    "address": "Dự án 101A Nguyễn Khuyến, Quận Đống Đa",
    "location": {
      "lat": 21.0283479,
      "lng": 105.8378824
    }
  },
  {
    "address": "Dự án 102 Trường Chinh Meco, Quận Đống Đa",
    "location": {
      "lat": 20.9999783,
      "lng": 105.8379621
    }
  },
  {
    "address": "Dự án 131 phố Thái Hà, Quận Đống Đa",
    "location": {
      "lat": 21.0130045,
      "lng": 105.8195099
    }
  },
  {
    "address": "Dự án 170 Đê La Thành - GP Building, Quận Đống Đa",
    "location": {
      "lat": 21.0207133,
      "lng": 105.8275735
    }
  },
  {
    "address": "Dự án 25 Vũ Ngọc Phan, Quận Đống Đa",
    "location": {
      "lat": 21.0139509,
      "lng": 105.8111149
    }
  },
  {
    "address": "Dự án 183 Nguyễn Lương Bằng, Quận Đống Đa",
    "location": {
      "lat": 21.0139212,
      "lng": 105.8276996
    }
  },
  {
    "address": "Dự án 187 Tây Sơn, Quận Đống Đa",
    "location": {
      "lat": 21.0133882,
      "lng": 105.8278441
    }
  },
  {
    "address": "Dự án 257 Giải Phóng, Quận Đống Đa",
    "location": {
      "lat": 20.9987993,
      "lng": 105.8416552
    }
  },
  {
    "address": "Dự án 27 Huỳnh Thúc Kháng, Quận Đống Đa",
    "location": {
      "lat": 21.0180635,
      "lng": 105.8114976
    }
  },
  {
    "address": "Dự án 59-63 Huỳnh Thúc Kháng, Quận Đống Đa",
    "location": {
      "lat": 21.0195068,
      "lng": 105.8086219
    }
  },
  {
    "address": "Dự án B4 và B14 Kim Liên, Quận Đống Đa",
    "location": {
      "lat": 21.0066938,
      "lng": 105.8356348
    }
  },
  {
    "address": "Dự án 360 Tây Sơn, Quận Đống Đa",
    "location": {
      "lat": 21.004645,
      "lng": 105.821979
    }
  },
  {
    "address": "Dự án B7 - B10 Kim Liên, Quận Đống Đa",
    "location": {
      "lat": 21.0094402,
      "lng": 105.8356426
    }
  },
  {
    "address": "Dự án C'land Tower, Quận Đống Đa",
    "location": {
      "lat": 21.0141981,
      "lng": 105.8314608
    }
  },
  {
    "address": "Dự án Capital Garden 102 Trường Chinh Kinh Đô, Quận Đống Đa",
    "location": {
      "lat": 13.9111731,
      "lng": 109.0977416
    }
  },
  {
    "address": "Dự án D'. Le Pont D'or - Hoàng Cầu, Quận Đống Đa",
    "location": {
      "lat": 21.0194063,
      "lng": 105.8224211
    }
  },
  {
    "address": "Dự án Đào Duy Anh Tower - 9 Đào Duy Anh, Quận Đống Đa",
    "location": {
      "lat": 21.0082592,
      "lng": 105.8389109
    }
  },
  {
    "address": "Dự án DSD Building, Quận Đống Đa",
    "location": {
      "lat": 21.0180725,
      "lng": 105.8299495
    }
  },
  {
    "address": "Dự án Eurowindow Tôn Thất Tùng, Quận Đống Đa",
    "location": {
      "lat": 21.0060539,
      "lng": 105.8308074
    }
  },
  {
    "address": "Dự án Ford Thăng Long, Quận Đống Đa",
    "location": {
      "lat": 21.0180725,
      "lng": 105.8299495
    }
  },
  {
    "address": "Dự án Geleximco 36 Hoàng Cầu, Quận Đống Đa",
    "location": {
      "lat": 21.0192586,
      "lng": 105.8236629
    }
  },
  {
    "address": "Dự án Giảng Võ Complex, Quận Đống Đa",
    "location": {
      "lat": 21.0278358,
      "lng": 105.8247636
    }
  },
  {
    "address": "Dự án Green Diamond 93 Láng Hạ, Quận Đống Đa",
    "location": {
      "lat": 21.015379,
      "lng": 105.814104
    }
  },
  {
    "address": "Dự án Hà Thành Plaza, Quận Đống Đa",
    "location": {
      "lat": 21.0088537,
      "lng": 105.8203313
    }
  },
  {
    "address": "Dự án HACO Complex Tower, Quận Đống Đa",
    "location": {
      "lat": 21.0180725,
      "lng": 105.8299495
    }
  },
  {
    "address": "Dự án Hải Đăng Tower, Quận Đống Đa",
    "location": {
      "lat": 21.0207207,
      "lng": 105.8190436
    }
  },
  {
    "address": "Dự án Hapro Building, Quận Đống Đa",
    "location": {
      "lat": 21.0276926,
      "lng": 105.8326061
    }
  },
  {
    "address": "Dự án Hateco Laroma, Quận Đống Đa",
    "location": {
      "lat": 21.0215856,
      "lng": 105.8038541
    }
  },
  {
    "address": "Dự án Hateco Plaza, Quận Đống Đa",
    "location": {
      "lat": 21.0180725,
      "lng": 105.8299495
    }
  },
  {
    "address": "Dự án Hoàng Cầu Skyline, Quận Đống Đa",
    "location": {
      "lat": 21.0183925,
      "lng": 105.8240564
    }
  },
  {
    "address": "Dự án Hong Kong Tower, Quận Đống Đa",
    "location": {
      "lat": 21.0277376,
      "lng": 105.804434
    }
  },
  {
    "address": "Dự án Hợp Nhất Building, Quận Đống Đa",
    "location": {
      "lat": 21.0180725,
      "lng": 105.8299495
    }
  },
  {
    "address": "Dự án Horison Tower, Quận Đống Đa",
    "location": {
      "lat": 21.0298444,
      "lng": 105.8288004
    }
  },
  {
    "address": "Dự án MBLand Tower, Quận Đống Đa",
    "location": {
      "lat": 21.0071935,
      "lng": 105.8295538
    }
  },
  {
    "address": "Dự án Mecanimex, Quận Đống Đa",
    "location": {
      "lat": 21.0134218,
      "lng": 105.812275
    }
  },
  {
    "address": "Dự án ICC Commercial Center, Quận Đống Đa",
    "location": {
      "lat": 21.0180725,
      "lng": 105.8299495
    }
  },
  {
    "address": "Dự án Icon4 Tower, Quận Đống Đa",
    "location": {
      "lat": 21.0279942,
      "lng": 105.8044018
    }
  },
  {
    "address": "Dự án MIPEC Towers, Quận Đống Đa",
    "location": {
      "lat": 21.0053543,
      "lng": 105.8239844
    }
  },
  {
    "address": "Dự án Khâm Thiên Building, Quận Đống Đa",
    "location": {
      "lat": 21.0189212,
      "lng": 105.8343968
    }
  },
  {
    "address": "Dự án Ocean Park, Quận Đống Đa",
    "location": {
      "lat": 21.0180725,
      "lng": 105.8299495
    }
  },
  {
    "address": "Dự án Kinh Do Building, Quận Đống Đa",
    "location": {
      "lat": 21.0180725,
      "lng": 105.8299495
    }
  },
  {
    "address": "Dự án La Casa Villa, Quận Đống Đa",
    "location": {
      "lat": 21.0135503,
      "lng": 105.8113262
    }
  },
  {
    "address": "Dự án Lancaster Luminaire, Quận Đống Đa",
    "location": {
      "lat": 21.0180725,
      "lng": 105.8299495
    }
  },
  {
    "address": "Dự án Le Capitole, Quận Đống Đa",
    "location": {
      "lat": 21.0187993,
      "lng": 105.8413845
    }
  },
  {
    "address": "Dự án M3 - M4 Nguyễn Chí Thanh, Quận Đống Đa",
    "location": {
      "lat": 21.0204307,
      "lng": 105.8089215
    }
  },
  {
    "address": "Dự án M5 Nguyễn Chí Thanh, Quận Đống Đa",
    "location": {
      "lat": 21.0207552,
      "lng": 105.8093765
    }
  },
  {
    "address": "Dự án Oriental Tower - 324 Tây Sơn, Quận Đống Đa",
    "location": {
      "lat": 21.0054918,
      "lng": 105.8219919
    }
  },
  {
    "address": "Dự án Petrowaco 97 Láng Hạ, Quận Đống Đa",
    "location": {
      "lat": 21.0142572,
      "lng": 105.8136393
    }
  },
  {
    "address": "Dự án Porte De Ville, Quận Đống Đa",
    "location": {
      "lat": 16.07779749900004,
      "lng": 108.21659790000007
    }
  },
  {
    "address": "Dự án Sky City Towers-88 Láng Hạ, Quận Đống Đa",
    "location": {
      "lat": 21.012333,
      "lng": 105.8113013
    }
  },
  {
    "address": "Dự án Sông Hồng Park View, Quận Đống Đa",
    "location": {
      "lat": 21.01483515600006,
      "lng": 105.81729521900007
    }
  },
  {
    "address": "Dự án T&amp;T Capella, Quận Đống Đa",
    "location": {
      "lat": 21.007007,
      "lng": 105.796197
    }
  },
  {
    "address": "Dự án Tân Á Đại Thành, Quận Đống Đa",
    "location": {
      "lat": 21.0263115,
      "lng": 105.8333187
    }
  },
  {
    "address": "Dự án Tập thể Hào Nam, Quận Đống Đa",
    "location": {
      "lat": 21.026554,
      "lng": 105.8260658
    }
  },
  {
    "address": "Dự án TĐC Hoàng Cầu, Quận Đống Đa",
    "location": {
      "lat": 21.0219424,
      "lng": 105.8189214
    }
  },
  {
    "address": "Dự án TĐL Building, Quận Đống Đa",
    "location": {
      "lat": 21.0156161,
      "lng": 105.8139589
    }
  },
  {
    "address": "Dự án The Terra Hào Nam, Quận Đống Đa",
    "location": {
      "lat": 21.0240055,
      "lng": 105.8267936
    }
  },
  {
    "address": "Dự án TNR The Nosta, Quận Đống Đa",
    "location": {
      "lat": 21.0118923,
      "lng": 105.8114978
    }
  },
  {
    "address": "Dự án Twin Towers, Quận Đống Đa",
    "location": {
      "lat": 21.0224385,
      "lng": 105.8311
    }
  },
  {
    "address": "Dự án VCCI Tower - số 9 Đào Duy Anh, Quận Đống Đa",
    "location": {
      "lat": 21.0085679,
      "lng": 105.8378173
    }
  },
  {
    "address": "Dự án Viễn Đông Building 36 Hoàng Cầu, Quận Đống Đa",
    "location": {
      "lat": 21.0197788,
      "lng": 105.8231135
    }
  },
  {
    "address": "Dự án Viet Tower, Quận Đống Đa",
    "location": {
      "lat": 21.0092312,
      "lng": 105.8237106
    }
  },
  {
    "address": "Dự án Vinaconex Tower, Quận Đống Đa",
    "location": {
      "lat": 21.0147456,
      "lng": 105.8132366
    }
  },
  {
    "address": "Dự án Vincom Center Phạm Ngọc Thạch, Quận Đống Đa",
    "location": {
      "lat": 21.0062871,
      "lng": 105.831843
    }
  },
  {
    "address": "Dự án Vinhomes Nguyễn Chí Thanh, Quận Đống Đa",
    "location": {
      "lat": 21.0234049,
      "lng": 105.8093847
    }
  },
  {
    "address": "Dự án Vườn Xuân - 71 Nguyễn Chí Thanh, Quận Đống Đa",
    "location": {
      "lat": 21.0241762,
      "lng": 105.8112061
    }
  },
  {
    "address": "Dự án Central Metropolitan, Huyện Gia Lâm",
    "location": {
      "lat": 21.0105208,
      "lng": 105.952941
    }
  },
  {
    "address": "Dự án Đặng Xá 1, Huyện Gia Lâm",
    "location": {
      "lat": 21.0287612,
      "lng": 105.9611748
    }
  },
  {
    "address": "Dự án Đặng Xá 2, Huyện Gia Lâm",
    "location": {
      "lat": 21.0287612,
      "lng": 105.9611748
    }
  },
  {
    "address": "Dự án Dự án Thuận An, Huyện Gia Lâm",
    "location": {
      "lat": 21.0105208,
      "lng": 105.952941
    }
  },
  {
    "address": "Dự án East Center, Huyện Gia Lâm",
    "location": {
      "lat": 21.0120237,
      "lng": 105.9388023
    }
  },
  {
    "address": "Dự án Eurowindow Twin Parks, Huyện Gia Lâm",
    "location": {
      "lat": 21.0078386,
      "lng": 105.9376756
    }
  },
  {
    "address": "Dự án Green Oasis Cổ Bi, Huyện Gia Lâm",
    "location": {
      "lat": 21.0223034,
      "lng": 105.8573531
    }
  },
  {
    "address": "Dự án Hanhomes Blue Star, Huyện Gia Lâm",
    "location": {
      "lat": 21.0101185,
      "lng": 105.9388834
    }
  },
  {
    "address": "Dự án Highway 5 Residences Gia Lâm, Huyện Gia Lâm",
    "location": {
      "lat": 21.0112195,
      "lng": 105.9478754
    }
  },
  {
    "address": "Dự án Hoa Viên Villas, Huyện Gia Lâm",
    "location": {
      "lat": 21.0169984,
      "lng": 105.9527786
    }
  },
  {
    "address": "Dự án Lâm Viên Villas, Huyện Gia Lâm",
    "location": {
      "lat": 20.9882236,
      "lng": 105.7855874
    }
  },
  {
    "address": "Dự án Lan Viên Villa, Huyện Gia Lâm",
    "location": {
      "lat": 21.018295,
      "lng": 105.9533281
    }
  },
  {
    "address": "Dự án Masteri Water Front, Huyện Gia Lâm",
    "location": {
      "lat": 20.9946492,
      "lng": 105.9458658
    }
  },
  {
    "address": "Dự án The Pavilion - Vinhomes Ocean Park, Huyện Gia Lâm",
    "location": {
      "lat": 21.0028626,
      "lng": 105.9454785
    }
  },
  {
    "address": "Dự án The Zenpark, Huyện Gia Lâm",
    "location": {
      "lat": 21.0009362,
      "lng": 105.94327
    }
  },
  {
    "address": "Dự án Vinhomes Ocean Park Gia Lâm, Huyện Gia Lâm",
    "location": {
      "lat": 20.9939937,
      "lng": 105.9502063
    }
  },
  {
    "address": "Dự án 16B Nguyễn Thái Học, Quận Hà Đông",
    "location": {
      "lat": 20.9729718,
      "lng": 105.7757394
    }
  },
  {
    "address": "Dự án 89 Phùng Hưng, Quận Hà Đông",
    "location": {
      "lat": 20.9643275,
      "lng": 105.7940415
    }
  },
  {
    "address": "Dự án An Hưng, Quận Hà Đông",
    "location": {
      "lat": 20.9730723,
      "lng": 105.7571532
    }
  },
  {
    "address": "Dự án An Khang Villa, Quận Hà Đông",
    "location": {
      "lat": 20.9776041,
      "lng": 105.7597482
    }
  },
  {
    "address": "Dự án An Lạc Tower, Quận Hà Đông",
    "location": {
      "lat": 20.955835,
      "lng": 105.7563658
    }
  },
  {
    "address": "Dự án An Phú Shop Villa, Quận Hà Đông",
    "location": {
      "lat": 20.9820525,
      "lng": 105.7522364
    }
  },
  {
    "address": "Dự án An Quý Villa - KĐT Dương Nội, Quận Hà Đông",
    "location": {
      "lat": 10.835442637000028,
      "lng": 106.66184738700008
    }
  },
  {
    "address": "Dự án An Vượng Villa, Quận Hà Đông",
    "location": {
      "lat": 20.9836571,
      "lng": 105.7538314
    }
  },
  {
    "address": "Dự án Anland Complex, Quận Hà Đông",
    "location": {
      "lat": 20.9767166,
      "lng": 105.7613887
    }
  },
  {
    "address": "Dự án Anland LakeView, Quận Hà Đông",
    "location": {
      "lat": 20.9845412,
      "lng": 105.7582355
    }
  },
  {
    "address": "Dự án Anland Premium, Quận Hà Đông",
    "location": {
      "lat": 20.9760896,
      "lng": 105.7610096
    }
  },
  {
    "address": "Dự án Bắc Hà Fodacon, Quận Hà Đông",
    "location": {
      "lat": 20.9826688,
      "lng": 105.7900465
    }
  },
  {
    "address": "Dự án BID Residence, Quận Hà Đông",
    "location": {
      "lat": 20.9755207,
      "lng": 105.761431
    }
  },
  {
    "address": "Dự án Bình Vượng 200 Quang Trung, Quận Hà Đông",
    "location": {
      "lat": 20.9667596,
      "lng": 105.7701847
    }
  },
  {
    "address": "Dự án Booyoung, Quận Hà Đông",
    "location": {
      "lat": 20.98038,
      "lng": 105.7846863
    }
  },
  {
    "address": "Dự án Chung cư 24 Nguyễn Khuyến, Quận Hà Đông",
    "location": {
      "lat": 20.9773731,
      "lng": 105.7867365
    }
  },
  {
    "address": "Dự án CT1 Yên Nghĩa, Quận Hà Đông",
    "location": {
      "lat": 20.9722595,
      "lng": 105.7573986
    }
  },
  {
    "address": "Dự án CT2 Yên Nghĩa, Quận Hà Đông",
    "location": {
      "lat": 20.9540586,
      "lng": 105.7409852
    }
  },
  {
    "address": "Dự án CT3 Yên Nghĩa, Quận Hà Đông",
    "location": {
      "lat": 20.9552727,
      "lng": 105.7445181
    }
  },
  {
    "address": "Dự án CT5 Văn Khê, Quận Hà Đông",
    "location": {
      "lat": 20.9730275,
      "lng": 105.7636343
    }
  },
  {
    "address": "Dự án D'Gold Goldsilk City, Quận Hà Đông",
    "location": {
      "lat": 20.9766812,
      "lng": 105.7632796
    }
  },
  {
    "address": "Dự án Ellipse Tower, Quận Hà Đông",
    "location": {
      "lat": 20.9773945,
      "lng": 105.7839877
    }
  },
  {
    "address": "Dự án Evelyne Gardens - ParkCity Hà Nội, Quận Hà Đông",
    "location": {
      "lat": 20.9634491,
      "lng": 105.7577445
    }
  },
  {
    "address": "Dự án FLC Star Tower, Quận Hà Đông",
    "location": {
      "lat": 20.9622687,
      "lng": 105.7645011
    }
  },
  {
    "address": "Dự án Hemisco Xa La, Quận Hà Đông",
    "location": {
      "lat": 20.9833059,
      "lng": 105.7766433
    }
  },
  {
    "address": "Dự án Him Lam Vạn Phúc, Quận Hà Đông",
    "location": {
      "lat": 20.9811988,
      "lng": 105.7677845
    }
  },
  {
    "address": "Dự án Golden Millennium, Quận Hà Đông",
    "location": {
      "lat": 20.955835,
      "lng": 105.7563658
    }
  },
  {
    "address": "Dự án Đô Nghĩa, Quận Hà Đông",
    "location": {
      "lat": 20.955835,
      "lng": 105.7563658
    }
  },
  {
    "address": "Dự án Daewoo Cleve, Quận Hà Đông",
    "location": {
      "lat": 20.955835,
      "lng": 105.7563658
    }
  },
  {
    "address": "Dự án GoldSilk Complex, Quận Hà Đông",
    "location": {
      "lat": 20.9833059,
      "lng": 105.7766433
    }
  },
  {
    "address": "Dự án Geleximco Lê Trọng Tấn, Quận Hà Đông",
    "location": {
      "lat": 20.9771639,
      "lng": 105.7469454
    }
  },
  {
    "address": "Dự án Grand Sunlake, Quận Hà Đông",
    "location": {
      "lat": 20.9857302,
      "lng": 105.8129694
    }
  },
  {
    "address": "Dự án Hà Đông Park View, Quận Hà Đông",
    "location": {
      "lat": 20.9833059,
      "lng": 105.7766433
    }
  },
  {
    "address": "Dự án Hà Nội Time Towers, Quận Hà Đông",
    "location": {
      "lat": 20.9833059,
      "lng": 105.7766433
    }
  },
  {
    "address": "Dự án Hồ Gươm Plaza, Quận Hà Đông",
    "location": {
      "lat": 20.9790317,
      "lng": 105.7856461
    }
  },
  {
    "address": "Dự án Hoàng Thành Villas, Quận Hà Đông",
    "location": {
      "lat": 20.9883659,
      "lng": 105.7851806
    }
  },
  {
    "address": "Dự án HP Landmark Tower, Quận Hà Đông",
    "location": {
      "lat": 20.9721493,
      "lng": 105.7575821
    }
  },
  {
    "address": "Dự án HPC Landmark 105, Quận Hà Đông",
    "location": {
      "lat": 20.9833059,
      "lng": 105.7766433
    }
  },
  {
    "address": "Dự án HUD3 Tower, Quận Hà Đông",
    "location": {
      "lat": 20.9665229,
      "lng": 105.777508
    }
  },
  {
    "address": "Dự án Hyundai Hillstate, Quận Hà Đông",
    "location": {
      "lat": 20.9636638,
      "lng": 105.7760373
    }
  },
  {
    "address": "Dự án ICID Complex, Quận Hà Đông",
    "location": {
      "lat": 20.9825715,
      "lng": 105.7429776
    }
  },
  {
    "address": "Dự án KĐT Đồng Mai, Quận Hà Đông",
    "location": {
      "lat": 20.9308715,
      "lng": 105.7409852
    }
  },
  {
    "address": "Dự án KĐT La Khê, Quận Hà Đông",
    "location": {
      "lat": 20.9724114,
      "lng": 105.7615252
    }
  },
  {
    "address": "Dự án KĐT Phú Lương, Quận Hà Đông",
    "location": {
      "lat": 20.930748,
      "lng": 105.7788411
    }
  },
  {
    "address": "Dự án KĐT Văn Phú, Quận Hà Đông",
    "location": {
      "lat": 20.9586775,
      "lng": 105.7688614
    }
  },
  {
    "address": "Dự án KĐT Văn Quán, Quận Hà Đông",
    "location": {
      "lat": 20.9741262,
      "lng": 105.7894045
    }
  },
  {
    "address": "Dự án KĐT Xa La, Quận Hà Đông",
    "location": {
      "lat": 20.9622571,
      "lng": 105.7923394
    }
  },
  {
    "address": "Dự án KĐTM Dương Nội, Quận Hà Đông",
    "location": {
      "lat": 20.962501,
      "lng": 105.746735
    }
  },
  {
    "address": "Dự án Khu nhà ở Bộ tư lệnh Thủ đô Hà Nội, Quận Hà Đông",
    "location": {
      "lat": 20.9543889,
      "lng": 105.7454952
    }
  },
  {
    "address": "Dự án Khu nhà ở Hưng Thịnh, Quận Hà Đông",
    "location": {
      "lat": 20.9700651,
      "lng": 105.7903685
    }
  },
  {
    "address": "Dự án Khu nhà ở Phú Mỹ, Quận Hà Đông",
    "location": {
      "lat": 20.955835,
      "lng": 105.7563658
    }
  },
  {
    "address": "Dự án Khu nhà ở V5 V6, Quận Hà Đông",
    "location": {
      "lat": 20.955835,
      "lng": 105.7563658
    }
  },
  {
    "address": "Dự án Khu nhà phố thương mại 24h, Quận Hà Đông",
    "location": {
      "lat": 20.955835,
      "lng": 105.7563658
    }
  },
  {
    "address": "Dự án Kiến Hưng, Quận Hà Đông",
    "location": {
      "lat": 20.9528073,
      "lng": 105.7850022
    }
  },
  {
    "address": "Dự án Kiến Hưng Luxury, Quận Hà Đông",
    "location": {
      "lat": 20.955162,
      "lng": 105.788496
    }
  },
  {
    "address": "Dự án La Casta Văn Phú, Quận Hà Đông",
    "location": {
      "lat": 20.9578758,
      "lng": 105.7684225
    }
  },
  {
    "address": "Dự án Landcom Diamond, Quận Hà Đông",
    "location": {
      "lat": 20.955835,
      "lng": 105.7563658
    }
  },
  {
    "address": "Dự án Làng Việt Kiều Châu Âu Euroland, Quận Hà Đông",
    "location": {
      "lat": 20.9842189,
      "lng": 105.7861028
    }
  },
  {
    "address": "Dự án Lê Văn Lương Residentials, Quận Hà Đông",
    "location": {
      "lat": 20.955835,
      "lng": 105.7563658
    }
  },
  {
    "address": "Dự án Legend Park, Quận Hà Đông",
    "location": {
      "lat": 20.955835,
      "lng": 105.7563658
    }
  },
  {
    "address": "Dự án Lucky House, Quận Hà Đông",
    "location": {
      "lat": 20.9824726,
      "lng": 105.7523115
    }
  },
  {
    "address": "Dự án Machinco Hà Đông, Quận Hà Đông",
    "location": {
      "lat": 20.9835037,
      "lng": 105.7913493
    }
  },
  {
    "address": "Dự án Mipec City View, Quận Hà Đông",
    "location": {
      "lat": 20.9510012,
      "lng": 105.7923089
    }
  },
  {
    "address": "Dự án Mỗ Lao, Quận Hà Đông",
    "location": {
      "lat": 20.9833749,
      "lng": 105.7835348
    }
  },
  {
    "address": "Dự án Mulberry Lane, Quận Hà Đông",
    "location": {
      "lat": 20.9869598,
      "lng": 105.7861118
    }
  },
  {
    "address": "Dự án Nacimex, Quận Hà Đông",
    "location": {
      "lat": 20.955835,
      "lng": 105.7563658
    }
  },
  {
    "address": "Dự án Nam Cường Building, Quận Hà Đông",
    "location": {
      "lat": 20.9741389,
      "lng": 105.758613
    }
  },
  {
    "address": "Dự án Nam La Khê, Quận Hà Đông",
    "location": {
      "lat": 20.9724114,
      "lng": 105.7615252
    }
  },
  {
    "address": "Dự án Nam Xa la, Quận Hà Đông",
    "location": {
      "lat": 20.9604789,
      "lng": 105.7946035
    }
  },
  {
    "address": "Dự án Nàng Hương, Quận Hà Đông",
    "location": {
      "lat": 20.955835,
      "lng": 105.7563658
    }
  },
  {
    "address": "Dự án New Skyline, Quận Hà Đông",
    "location": {
      "lat": 20.955835,
      "lng": 105.7563658
    }
  },
  {
    "address": "Dự án Newhouse Xa La, Quận Hà Đông",
    "location": {
      "lat": 20.9833059,
      "lng": 105.7766433
    }
  },
  {
    "address": "Dự án Ngô Thì Nhậm, Quận Hà Đông",
    "location": {
      "lat": 20.9691116,
      "lng": 105.7688504
    }
  },
  {
    "address": "Dự án Nguyễn Chánh Hà Đông, Quận Hà Đông",
    "location": {
      "lat": 19.9974993,
      "lng": 105.8114175
    }
  },
  {
    "address": "Dự án Palmy Diamond Vạn Phúc, Quận Hà Đông",
    "location": {
      "lat": 20.9779165,
      "lng": 105.7751267
    }
  },
  {
    "address": "Dự án Park Kiara, Quận Hà Đông",
    "location": {
      "lat": 20.9637212,
      "lng": 105.7567846
    }
  },
  {
    "address": "Dự án Park View Residence, Quận Hà Đông",
    "location": {
      "lat": 20.9638722,
      "lng": 105.748825
    }
  },
  {
    "address": "Dự án ParkCity Hà Nội, Quận Hà Đông",
    "location": {
      "lat": 20.9634491,
      "lng": 105.7577445
    }
  },
  {
    "address": "Dự án PCC1 Complex, Quận Hà Đông",
    "location": {
      "lat": 20.9526825,
      "lng": 105.7576394
    }
  },
  {
    "address": "Dự án Phú Lãm, Quận Hà Đông",
    "location": {
      "lat": 20.9426712,
      "lng": 105.7541892
    }
  },
  {
    "address": "Dự án Phú Thịnh Green Park, Quận Hà Đông",
    "location": {
      "lat": 20.9617029,
      "lng": 105.774212
    }
  },
  {
    "address": "Dự án Rainbow Building, Quận Hà Đông",
    "location": {
      "lat": 20.9746464,
      "lng": 105.7877259
    }
  },
  {
    "address": "Dự án Samsora Premier, Quận Hà Đông",
    "location": {
      "lat": 20.9833059,
      "lng": 105.7766433
    }
  },
  {
    "address": "Dự án Sails Tower, Quận Hà Đông",
    "location": {
      "lat": 20.955835,
      "lng": 105.7563658
    }
  },
  {
    "address": "Dự án Gelex Tower, Quận Hai Bà Trưng",
    "location": {
      "lat": 21.0120907,
      "lng": 105.8479022
    }
  },
  {
    "address": "Dự án Grand Building, Quận Hai Bà Trưng",
    "location": {
      "lat": 21.0090571,
      "lng": 105.8607507
    }
  },
  {
    "address": "Dự án Green Park, Quận Hai Bà Trưng",
    "location": {
      "lat": 21.0090571,
      "lng": 105.8607507
    }
  },
  {
    "address": "Dự án Green Pearl 378 Minh Khai, Quận Hai Bà Trưng",
    "location": {
      "lat": 20.9964399,
      "lng": 105.8635404
    }
  },
  {
    "address": "Dự án Hàn Việt Tower, Quận Hai Bà Trưng",
    "location": {
      "lat": 20.9969444,
      "lng": 105.8616667
    }
  },
  {
    "address": "Dự án HDI Tower, Quận Hai Bà Trưng",
    "location": {
      "lat": 21.0124139,
      "lng": 105.8470199
    }
  },
  {
    "address": "Dự án Hinode City, Quận Hai Bà Trưng",
    "location": {
      "lat": 20.9973359,
      "lng": 105.8610445
    }
  },
  {
    "address": "Dự án Hòa Bình Green City, Quận Hai Bà Trưng",
    "location": {
      "lat": 20.9964399,
      "lng": 105.8635404
    }
  },
  {
    "address": "Dự án Hoàng Thành Tower, Quận Hai Bà Trưng",
    "location": {
      "lat": 21.0114871,
      "lng": 105.8507596
    }
  },
  {
    "address": "Dự án Imperia Sky Garden, Quận Hai Bà Trưng",
    "location": {
      "lat": 20.9979896,
      "lng": 105.8666989
    }
  },
  {
    "address": "Dự án Liền kề 622 Minh Khai, Quận Hai Bà Trưng",
    "location": {
      "lat": 20.9991598,
      "lng": 105.8708461
    }
  },
  {
    "address": "Dự án Lilama 124 Minh Khai, Quận Hai Bà Trưng",
    "location": {
      "lat": 20.9952954,
      "lng": 105.8527019
    }
  },
  {
    "address": "Dự án Minori Village, Quận Hai Bà Trưng",
    "location": {
      "lat": 21.0090571,
      "lng": 105.8607507
    }
  },
  {
    "address": "Dự án Nhà phố liền kề 124 Vĩnh Tuy, Quận Hai Bà Trưng",
    "location": {
      "lat": 20.9993104,
      "lng": 105.8769703
    }
  },
  {
    "address": "Dự án Park Hill Premium - Times City, Quận Hai Bà Trưng",
    "location": {
      "lat": 20.9964399,
      "lng": 105.8635404
    }
  },
  {
    "address": "Dự án Prime Centre, Quận Hai Bà Trưng",
    "location": {
      "lat": 21.0185327,
      "lng": 105.8477905
    }
  },
  {
    "address": "Dự án Ruby Plaza, Quận Hai Bà Trưng",
    "location": {
      "lat": 21.0090571,
      "lng": 105.8607507
    }
  },
  {
    "address": "Dự án Sky Light, Quận Hai Bà Trưng",
    "location": {
      "lat": 20.9975562,
      "lng": 105.8546256
    }
  },
  {
    "address": "Dự án Sun Grand City Ancora Residence, Quận Hai Bà Trưng",
    "location": {
      "lat": 21.0112483,
      "lng": 105.8633783
    }
  },
  {
    "address": "Dự án Sunshine Garden, Quận Hai Bà Trưng",
    "location": {
      "lat": 20.9941627,
      "lng": 105.8740992
    }
  },
  {
    "address": "Dự án Tài Tâm, Quận Hai Bà Trưng",
    "location": {
      "lat": 21.0090571,
      "lng": 105.8607507
    }
  },
  {
    "address": "Dự án Thăng Long Garden 250 Minh Khai, Quận Hai Bà Trưng",
    "location": {
      "lat": 20.9959104,
      "lng": 105.8576533
    }
  },
  {
    "address": "Dự án Times City, Quận Hai Bà Trưng",
    "location": {
      "lat": 20.9945438,
      "lng": 105.8677181
    }
  },
  {
    "address": "Dự án Times City - Park Hill, Quận Hai Bà Trưng",
    "location": {
      "lat": 20.9945438,
      "lng": 105.8677181
    }
  },
  {
    "address": "Dự án TMC Thăng Long - 01 Lương Yên, Quận Hai Bà Trưng",
    "location": {
      "lat": 21.0128829,
      "lng": 105.8631417
    }
  },
  {
    "address": "Dự án Tòa nhà Cty CPXD số 1 HN, Quận Hai Bà Trưng",
    "location": {
      "lat": 21.0121527,
      "lng": 105.8586618
    }
  },
  {
    "address": "Dự án Tòa nhà Thái Bình, Quận Hai Bà Trưng",
    "location": {
      "lat": 21.0090738,
      "lng": 105.8510934
    }
  },
  {
    "address": "Dự án Trương Định Complex, Quận Hai Bà Trưng",
    "location": {
      "lat": 20.9915256,
      "lng": 105.8512001
    }
  },
  {
    "address": "Dự án TTTM Chợ Mơ, Quận Hai Bà Trưng",
    "location": {
      "lat": 20.9965352,
      "lng": 105.8503121
    }
  },
  {
    "address": "Dự án V Building, Quận Hai Bà Trưng",
    "location": {
      "lat": 21.01556,
      "lng": 105.849331
    }
  },
  {
    "address": "Dự án Vinafor, Quận Hai Bà Trưng",
    "location": {
      "lat": 21.017732,
      "lng": 105.8551417
    }
  },
  {
    "address": "Dự án Vincom Center Bà Triệu, Quận Hai Bà Trưng",
    "location": {
      "lat": 21.0110677,
      "lng": 105.8494833
    }
  },
  {
    "address": "Dự án VTC Online building, Quận Hai Bà Trưng",
    "location": {
      "lat": 20.9948698,
      "lng": 105.8619023
    }
  },
  {
    "address": "Dự án Zodi Building, Quận Hai Bà Trưng",
    "location": {
      "lat": 21.0131769,
      "lng": 105.850317
    }
  },
  {
    "address": "Dự án An Lạc Green Symphony, Huyện Hoài Đức",
    "location": {
      "lat": 21.0265803,
      "lng": 105.7349546
    }
  },
  {
    "address": "Dự án An Thịnh I, Huyện Hoài Đức",
    "location": {
      "lat": 21.0243168,
      "lng": 105.6988892
    }
  },
  {
    "address": "Dự án Bảo Sơn Paradise, Huyện Hoài Đức",
    "location": {
      "lat": 20.9987716,
      "lng": 105.7335397
    }
  },
  {
    "address": "Dự án Casa Mila, Huyện Hoài Đức",
    "location": {
      "lat": 21.0243168,
      "lng": 105.6988892
    }
  },
  {
    "address": "Dự án Ciri An Khánh, Huyện Hoài Đức",
    "location": {
      "lat": 20.9994708,
      "lng": 105.7204476
    }
  },
  {
    "address": "Dự án CT Number One, Huyện Hoài Đức",
    "location": {
      "lat": 21.0243168,
      "lng": 105.6988892
    }
  },
  {
    "address": "Dự án Dầu khí Đức Giang, Huyện Hoài Đức",
    "location": {
      "lat": 21.0585539,
      "lng": 105.7087128
    }
  },
  {
    "address": "Dự án Gemek Tower, Huyện Hoài Đức",
    "location": {
      "lat": 21.0083153,
      "lng": 105.7304639
    }
  },
  {
    "address": "Dự án Hinode Royal Park, Huyện Hoài Đức",
    "location": {
      "lat": 21.0550035,
      "lng": 105.7122776
    }
  },
  {
    "address": "Dự án Hoa Phượng, Huyện Hoài Đức",
    "location": {
      "lat": 21.0243168,
      "lng": 105.6988892
    }
  },
  {
    "address": "Dự án Five Stars, Huyện Hoài Đức",
    "location": {
      "lat": 21.0243168,
      "lng": 105.6988892
    }
  },
  {
    "address": "Dự án Gemek Premium, Huyện Hoài Đức",
    "location": {
      "lat": 21.0431289,
      "lng": 105.7317771
    }
  },
  {
    "address": "Dự án Lideco, Huyện Hoài Đức",
    "location": {
      "lat": 21.0711841,
      "lng": 105.7131132
    }
  },
  {
    "address": "Dự án Hado Charm Villas, Huyện Hoài Đức",
    "location": {
      "lat": 21.004961,
      "lng": 105.7061492
    }
  },
  {
    "address": "Dự án Khu đô thị Vân Canh, Huyện Hoài Đức",
    "location": {
      "lat": 21.0252469,
      "lng": 105.7314496
    }
  },
  {
    "address": "Dự án Mailand Hanoi City, Huyện Hoài Đức",
    "location": {
      "lat": 21.014572,
      "lng": 105.7229918
    }
  },
  {
    "address": "Dự án Gelex Tower, Quận Hai Bà Trưng",
    "location": {
      "lat": 21.0120907,
      "lng": 105.8479022
    }
  },
  {
    "address": "Dự án Grand Building, Quận Hai Bà Trưng",
    "location": {
      "lat": 21.0090571,
      "lng": 105.8607507
    }
  },
  {
    "address": "Dự án Green Park, Quận Hai Bà Trưng",
    "location": {
      "lat": 21.0090571,
      "lng": 105.8607507
    }
  },
  {
    "address": "Dự án Green Pearl 378 Minh Khai, Quận Hai Bà Trưng",
    "location": {
      "lat": 20.9964399,
      "lng": 105.8635404
    }
  },
  {
    "address": "Dự án Hàn Việt Tower, Quận Hai Bà Trưng",
    "location": {
      "lat": 20.9969444,
      "lng": 105.8616667
    }
  },
  {
    "address": "Dự án HDI Tower, Quận Hai Bà Trưng",
    "location": {
      "lat": 21.0124139,
      "lng": 105.8470199
    }
  },
  {
    "address": "Dự án Hinode City, Quận Hai Bà Trưng",
    "location": {
      "lat": 20.9973359,
      "lng": 105.8610445
    }
  },
  {
    "address": "Dự án Hòa Bình Green City, Quận Hai Bà Trưng",
    "location": {
      "lat": 20.9964399,
      "lng": 105.8635404
    }
  },
  {
    "address": "Dự án Hoàng Thành Tower, Quận Hai Bà Trưng",
    "location": {
      "lat": 21.0114871,
      "lng": 105.8507596
    }
  },
  {
    "address": "Dự án Imperia Sky Garden, Quận Hai Bà Trưng",
    "location": {
      "lat": 20.9979896,
      "lng": 105.8666989
    }
  },
  {
    "address": "Dự án Liền kề 622 Minh Khai, Quận Hai Bà Trưng",
    "location": {
      "lat": 20.9991598,
      "lng": 105.8708461
    }
  },
  {
    "address": "Dự án Lilama 124 Minh Khai, Quận Hai Bà Trưng",
    "location": {
      "lat": 20.9952954,
      "lng": 105.8527019
    }
  },
  {
    "address": "Dự án Minori Village, Quận Hai Bà Trưng",
    "location": {
      "lat": 21.0090571,
      "lng": 105.8607507
    }
  },
  {
    "address": "Dự án Nhà phố liền kề 124 Vĩnh Tuy, Quận Hai Bà Trưng",
    "location": {
      "lat": 20.9993104,
      "lng": 105.8769703
    }
  },
  {
    "address": "Dự án Park Hill Premium - Times City, Quận Hai Bà Trưng",
    "location": {
      "lat": 20.9964399,
      "lng": 105.8635404
    }
  },
  {
    "address": "Dự án Prime Centre, Quận Hai Bà Trưng",
    "location": {
      "lat": 21.0185327,
      "lng": 105.8477905
    }
  },
  {
    "address": "Dự án Ruby Plaza, Quận Hai Bà Trưng",
    "location": {
      "lat": 21.0090571,
      "lng": 105.8607507
    }
  },
  {
    "address": "Dự án Sky Light, Quận Hai Bà Trưng",
    "location": {
      "lat": 20.9975562,
      "lng": 105.8546256
    }
  },
  {
    "address": "Dự án Sun Grand City Ancora Residence, Quận Hai Bà Trưng",
    "location": {
      "lat": 21.0112483,
      "lng": 105.8633783
    }
  },
  {
    "address": "Dự án Sunshine Garden, Quận Hai Bà Trưng",
    "location": {
      "lat": 20.9941627,
      "lng": 105.8740992
    }
  },
  {
    "address": "Dự án Tài Tâm, Quận Hai Bà Trưng",
    "location": {
      "lat": 21.0090571,
      "lng": 105.8607507
    }
  },
  {
    "address": "Dự án Thăng Long Garden 250 Minh Khai, Quận Hai Bà Trưng",
    "location": {
      "lat": 20.9959104,
      "lng": 105.8576533
    }
  },
  {
    "address": "Dự án Times City, Quận Hai Bà Trưng",
    "location": {
      "lat": 20.9945438,
      "lng": 105.8677181
    }
  },
  {
    "address": "Dự án Times City - Park Hill, Quận Hai Bà Trưng",
    "location": {
      "lat": 20.9945438,
      "lng": 105.8677181
    }
  },
  {
    "address": "Dự án TMC Thăng Long - 01 Lương Yên, Quận Hai Bà Trưng",
    "location": {
      "lat": 21.0128829,
      "lng": 105.8631417
    }
  },
  {
    "address": "Dự án Tòa nhà Cty CPXD số 1 HN, Quận Hai Bà Trưng",
    "location": {
      "lat": 21.0121527,
      "lng": 105.8586618
    }
  },
  {
    "address": "Dự án Tòa nhà Thái Bình, Quận Hai Bà Trưng",
    "location": {
      "lat": 21.0090738,
      "lng": 105.8510934
    }
  },
  {
    "address": "Dự án Trương Định Complex, Quận Hai Bà Trưng",
    "location": {
      "lat": 20.9915256,
      "lng": 105.8512001
    }
  },
  {
    "address": "Dự án TTTM Chợ Mơ, Quận Hai Bà Trưng",
    "location": {
      "lat": 20.9965352,
      "lng": 105.8503121
    }
  },
  {
    "address": "Dự án V Building, Quận Hai Bà Trưng",
    "location": {
      "lat": 21.01556,
      "lng": 105.849331
    }
  },
  {
    "address": "Dự án Vinafor, Quận Hai Bà Trưng",
    "location": {
      "lat": 21.017732,
      "lng": 105.8551417
    }
  },
  {
    "address": "Dự án Vincom Center Bà Triệu, Quận Hai Bà Trưng",
    "location": {
      "lat": 21.0110677,
      "lng": 105.8494833
    }
  },
  {
    "address": "Dự án VTC Online building, Quận Hai Bà Trưng",
    "location": {
      "lat": 20.9948698,
      "lng": 105.8619023
    }
  },
  {
    "address": "Dự án Zodi Building, Quận Hai Bà Trưng",
    "location": {
      "lat": 21.0131769,
      "lng": 105.850317
    }
  },
  {
    "address": "Dự án An Lạc Green Symphony, Huyện Hoài Đức",
    "location": {
      "lat": 21.0265803,
      "lng": 105.7349546
    }
  },
  {
    "address": "Dự án An Thịnh I, Huyện Hoài Đức",
    "location": {
      "lat": 21.0243168,
      "lng": 105.6988892
    }
  },
  {
    "address": "Dự án Bảo Sơn Paradise, Huyện Hoài Đức",
    "location": {
      "lat": 20.9987716,
      "lng": 105.7335397
    }
  },
  {
    "address": "Dự án Casa Mila, Huyện Hoài Đức",
    "location": {
      "lat": 21.0243168,
      "lng": 105.6988892
    }
  },
  {
    "address": "Dự án Ciri An Khánh, Huyện Hoài Đức",
    "location": {
      "lat": 20.9994708,
      "lng": 105.7204476
    }
  },
  {
    "address": "Dự án CT Number One, Huyện Hoài Đức",
    "location": {
      "lat": 21.0243168,
      "lng": 105.6988892
    }
  },
  {
    "address": "Dự án Dầu khí Đức Giang, Huyện Hoài Đức",
    "location": {
      "lat": 21.0585539,
      "lng": 105.7087128
    }
  },
  {
    "address": "Dự án Gemek Tower, Huyện Hoài Đức",
    "location": {
      "lat": 21.0083153,
      "lng": 105.7304639
    }
  },
  {
    "address": "Dự án Hinode Royal Park, Huyện Hoài Đức",
    "location": {
      "lat": 21.0550035,
      "lng": 105.7122776
    }
  },
  {
    "address": "Dự án Hoa Phượng, Huyện Hoài Đức",
    "location": {
      "lat": 21.0243168,
      "lng": 105.6988892
    }
  },
  {
    "address": "Dự án Five Stars, Huyện Hoài Đức",
    "location": {
      "lat": 21.0243168,
      "lng": 105.6988892
    }
  },
  {
    "address": "Dự án Gemek Premium, Huyện Hoài Đức",
    "location": {
      "lat": 21.0431289,
      "lng": 105.7317771
    }
  },
  {
    "address": "Dự án Lideco, Huyện Hoài Đức",
    "location": {
      "lat": 21.0711841,
      "lng": 105.7131132
    }
  },
  {
    "address": "Dự án Hado Charm Villas, Huyện Hoài Đức",
    "location": {
      "lat": 21.004961,
      "lng": 105.7061492
    }
  },
  {
    "address": "Dự án Khu đô thị Vân Canh, Huyện Hoài Đức",
    "location": {
      "lat": 21.0252469,
      "lng": 105.7314496
    }
  },
  {
    "address": "Dự án Mailand Hanoi City, Huyện Hoài Đức",
    "location": {
      "lat": 21.014572,
      "lng": 105.7229918
    }
  },
  {
    "address": "Dự án Azalea Homes, Quận Hoàng Mai",
    "location": {
      "lat": 20.9836984,
      "lng": 105.8636257
    }
  },
  {
    "address": "Dự án B1-B2 Tây Nam Linh Đàm, Quận Hoàng Mai",
    "location": {
      "lat": 20.9628948,
      "lng": 105.8238927
    }
  },
  {
    "address": "Dự án Bea Sky, Quận Hoàng Mai",
    "location": {
      "lat": 20.9761578,
      "lng": 105.810324
    }
  },
  {
    "address": "Dự án Căn hộ Thông tấn xã, Quận Hoàng Mai",
    "location": {
      "lat": 20.9836984,
      "lng": 105.8636257
    }
  },
  {
    "address": "Dự án Cầu Tiên, Quận Hoàng Mai",
    "location": {
      "lat": 20.9836984,
      "lng": 105.8636257
    }
  },
  {
    "address": "Dự án Chung cư 83 Ngọc Hồi, Quận Hoàng Mai",
    "location": {
      "lat": 20.9576049,
      "lng": 105.8450167
    }
  },
  {
    "address": "Dự án Chung cư C13 Bộ Quốc Phòng, Quận Hoàng Mai",
    "location": {
      "lat": 20.9836984,
      "lng": 105.8636257
    }
  },
  {
    "address": "Dự án Chung cư C14 Bộ Quốc Phòng, Quận Hoàng Mai",
    "location": {
      "lat": 20.9837162,
      "lng": 105.8202047
    }
  },
  {
    "address": "Dự án Chung cư X203 Lĩnh Nam, Quận Hoàng Mai",
    "location": {
      "lat": 20.9770005,
      "lng": 105.896559
    }
  },
  {
    "address": "Dự án CT3 Tây Nam Linh Đàm, Quận Hoàng Mai",
    "location": {
      "lat": 20.9586985,
      "lng": 105.8242034
    }
  },
  {
    "address": "Dự án CT36 - Dream Home, Quận Hoàng Mai",
    "location": {
      "lat": 20.9876149,
      "lng": 105.8350492
    }
  },
  {
    "address": "Dự án Đền Lừ I, Quận Hoàng Mai",
    "location": {
      "lat": 20.9854019,
      "lng": 105.8613675
    }
  },
  {
    "address": "Dự án Đền Lừ II, Quận Hoàng Mai",
    "location": {
      "lat": 20.9852547,
      "lng": 105.8578965
    }
  },
  {
    "address": "Dự án Định Công The Master, Quận Hoàng Mai",
    "location": {
      "lat": 20.984241,
      "lng": 105.8292021
    }
  },
  {
    "address": "Dự án Đồng Phát Park View Tower, Quận Hoàng Mai",
    "location": {
      "lat": 20.8409788,
      "lng": 106.6461593
    }
  },
  {
    "address": "Dự án Eco Lake View, Quận Hoàng Mai",
    "location": {
      "lat": 20.971995,
      "lng": 105.8389515
    }
  },
  {
    "address": "Dự án Feliz Homes, Quận Hoàng Mai",
    "location": {
      "lat": 20.9892229,
      "lng": 105.8591717
    }
  },
  {
    "address": "Dự án Gamuda City, Quận Hoàng Mai",
    "location": {
      "lat": 20.9626857,
      "lng": 105.858589
    }
  },
  {
    "address": "Dự án Gamuda Gardens, Quận Hoàng Mai",
    "location": {
      "lat": 20.9599362,
      "lng": 105.8606798
    }
  },
  {
    "address": "Dự án Gamuda Lakes, Quận Hoàng Mai",
    "location": {
      "lat": 20.9549372,
      "lng": 105.8591912
    }
  },
  {
    "address": "Dự án Gelexia Riverside, Quận Hoàng Mai",
    "location": {
      "lat": 20.9751133,
      "lng": 105.869926
    }
  },
  {
    "address": "Dự án Geleximco Southern Star, Quận Hoàng Mai",
    "location": {
      "lat": 20.9794134,
      "lng": 105.841583
    }
  },
  {
    "address": "Dự án Golden Pearl, Quận Hoàng Mai",
    "location": {
      "lat": 20.9836984,
      "lng": 105.8636257
    }
  },
  {
    "address": "Dự án Green Park Trần Thủ Độ, Quận Hoàng Mai",
    "location": {
      "lat": 20.9587688,
      "lng": 105.8463162
    }
  },
  {
    "address": "Dự án Green Park Vĩnh Hưng, Quận Hoàng Mai",
    "location": {
      "lat": 20.9956755,
      "lng": 105.8799439
    }
  },
  {
    "address": "Dự án Hà Nội Melody Residences, Quận Hoàng Mai",
    "location": {
      "lat": 20.9586985,
      "lng": 105.8242034
    }
  },
  {
    "address": "Dự án Hải Phát Complex, Quận Hoàng Mai",
    "location": {
      "lat": 20.9905909,
      "lng": 105.8334331
    }
  },
  {
    "address": "Dự án Happy House 296 Lĩnh Nam, Quận Hoàng Mai",
    "location": {
      "lat": 20.983865,
      "lng": 105.8756035
    }
  },
  {
    "address": "Dự án Hateco Hoàng Mai, Quận Hoàng Mai",
    "location": {
      "lat": 20.9623595,
      "lng": 105.8650338
    }
  },
  {
    "address": "Dự án HH1 Linh Đàm, Quận Hoàng Mai",
    "location": {
      "lat": 20.9997721,
      "lng": 105.8370109
    }
  },
  {
    "address": "Dự án HH2 Linh Đàm, Quận Hoàng Mai",
    "location": {
      "lat": 20.9713419,
      "lng": 105.8279961
    }
  },
  {
    "address": "Dự án Hòa Phát 70 NDC Tower, Quận Hoàng Mai",
    "location": {
      "lat": 20.9836984,
      "lng": 105.8636257
    }
  },
  {
    "address": "Dự án HUD3 Nguyễn Đức Cảnh, Quận Hoàng Mai",
    "location": {
      "lat": 20.9869442,
      "lng": 105.852454
    }
  },
  {
    "address": "Dự án Intracom 208, Quận Hoàng Mai",
    "location": {
      "lat": 20.9836984,
      "lng": 105.8636257
    }
  },
  {
    "address": "Dự án K35 Tân Mai, Quận Hoàng Mai",
    "location": {
      "lat": 20.9838226,
      "lng": 105.8523966
    }
  },
  {
    "address": "Dự án KĐT Đại Kim, Quận Hoàng Mai",
    "location": {
      "lat": 20.9712609,
      "lng": 105.8295905
    }
  },
  {
    "address": "Dự án KĐT Linh Đàm, Quận Hoàng Mai",
    "location": {
      "lat": 20.9644424,
      "lng": 105.8304975
    }
  },
  {
    "address": "Dự án KĐT Tây Nam Kim Giang, Quận Hoàng Mai",
    "location": {
      "lat": 20.9828413,
      "lng": 105.8121513
    }
  },
  {
    "address": "Dự án KĐT Vĩnh Hoàng, Quận Hoàng Mai",
    "location": {
      "lat": 20.9799812,
      "lng": 105.876007
    }
  },
  {
    "address": "Dự án KĐTM Đại Kim - Định Công, Quận Hoàng Mai",
    "location": {
      "lat": 20.9712609,
      "lng": 105.8295905
    }
  },
  {
    "address": "Dự án Khu di dân Đền Lừ III, Quận Hoàng Mai",
    "location": {
      "lat": 20.9816101,
      "lng": 105.8573644
    }
  },
  {
    "address": "Dự án Khu sinh thái Ao Mơ, Quận Hoàng Mai",
    "location": {
      "lat": 20.9940534,
      "lng": 105.8799512
    }
  },
  {
    "address": "Dự án Kim Văn Kim Lũ, Quận Hoàng Mai",
    "location": {
      "lat": 20.9731679,
      "lng": 105.8209018
    }
  },
  {
    "address": "Dự án Lavender Garden, Quận Hoàng Mai",
    "location": {
      "lat": 20.9841408,
      "lng": 105.8351587
    }
  },
  {
    "address": "Dự án LePARC by Gamuda, Quận Hoàng Mai",
    "location": {
      "lat": 20.9628938,
      "lng": 105.8586511
    }
  },
  {
    "address": "Dự án HH3 Linh Đàm, Quận Hoàng Mai",
    "location": {
      "lat": 20.9631778,
      "lng": 105.8274311
    }
  },
  {
    "address": "Dự án HH4 Linh Đàm, Quận Hoàng Mai",
    "location": {
      "lat": 20.9713419,
      "lng": 105.8279961
    }
  },
  {
    "address": "Dự án Helios Tower 75 Tam Trinh, Quận Hoàng Mai",
    "location": {
      "lat": 20.9950665,
      "lng": 105.8629391
    }
  },
  {
    "address": "Dự án Hồng Hà Tower, Quận Hoàng Mai",
    "location": {
      "lat": 20.9740704,
      "lng": 105.8444393
    }
  },
  {
    "address": "Dự án KĐT Định Công, Quận Hoàng Mai",
    "location": {
      "lat": 20.9868287,
      "lng": 105.8312314
    }
  },
  {
    "address": "Dự án Licogi 12, Quận Hoàng Mai",
    "location": {
      "lat": 20.9717603,
      "lng": 105.8390727
    }
  },
  {
    "address": "Dự án Lilama 52 Lĩnh Nam, Quận Hoàng Mai",
    "location": {
      "lat": 20.9952954,
      "lng": 105.8527019
    }
  },
  {
    "address": "Dự án Louis City Hoàng Mai, Quận Hoàng Mai",
    "location": {
      "lat": 20.9821778,
      "lng": 105.8590547
    }
  },
  {
    "address": "Dự án Mandarin Garden 2, Quận Hoàng Mai",
    "location": {
      "lat": 20.9839269,
      "lng": 105.847865
    }
  },
  {
    "address": "Dự án Momota Nguyễn Đức Cảnh, Quận Hoàng Mai",
    "location": {
      "lat": 20.9869442,
      "lng": 105.852454
    }
  },
  {
    "address": "Dự án Nam Đô Complex, Quận Hoàng Mai",
    "location": {
      "lat": 20.9794457,
      "lng": 105.8449844
    }
  },
  {
    "address": "Dự án Nam Hải Lakeview, Quận Hoàng Mai",
    "location": {
      "lat": 20.9835008,
      "lng": 105.8673109
    }
  },
  {
    "address": "Dự án New Horizon City - 87 Lĩnh Nam, Quận Hoàng Mai",
    "location": {
      "lat": 20.989176,
      "lng": 105.8662188
    }
  },
  {
    "address": "Dự án Nhà ở xã hội @Home, Quận Hoàng Mai",
    "location": {
      "lat": 20.991432,
      "lng": 105.857023
    }
  },
  {
    "address": "Dự án NOXH Đồng Mô, Quận Hoàng Mai",
    "location": {
      "lat": 20.9746238,
      "lng": 105.8258164
    }
  },
  {
    "address": "Dự án Osaka Complex, Quận Hoàng Mai",
    "location": {
      "lat": 20.9585435,
      "lng": 105.8392948
    }
  },
  {
    "address": "Dự án Pháp Vân Tứ Hiệp, Quận Hoàng Mai",
    "location": {
      "lat": 20.9479983,
      "lng": 105.8561549
    }
  },
  {
    "address": "Dự án Rainbow Linh Đàm, Quận Hoàng Mai",
    "location": {
      "lat": 20.9638998,
      "lng": 105.8241032
    }
  },
  {
    "address": "Dự án Rice City Linh Đàm, Quận Hoàng Mai",
    "location": {
      "lat": 20.9633858,
      "lng": 105.8230591
    }
  },
  {
    "address": "Dự án Riverside Tower 79 Thanh Đàm, Quận Hoàng Mai",
    "location": {
      "lat": 20.9929317,
      "lng": 105.8871411
    }
  },
  {
    "address": "Dự án Rose Town, Quận Hoàng Mai",
    "location": {
      "lat": 20.9598225,
      "lng": 105.8445526
    }
  },
  {
    "address": "Dự án Sky Central, Quận Hoàng Mai",
    "location": {
      "lat": 20.9844361,
      "lng": 105.835868
    }
  },
  {
    "address": "Dự án Smile Building, Quận Hoàng Mai",
    "location": {
      "lat": 20.9783401,
      "lng": 105.8362442
    }
  },
  {
    "address": "Dự án South Building, Quận Hoàng Mai",
    "location": {
      "lat": 20.9836984,
      "lng": 105.8636257
    }
  },
  {
    "address": "Dự án South Tower Hoàng Liệt, Quận Hoàng Mai",
    "location": {
      "lat": 20.9626443,
      "lng": 105.8448037
    }
  },
  {
    "address": "Dự án Sunshine Palace, Quận Hoàng Mai",
    "location": {
      "lat": 20.9900892,
      "lng": 105.8680319
    }
  },
  {
    "address": "Dự án T&amp;T Riverview, Quận Hoàng Mai",
    "location": {
      "lat": 21.007007,
      "lng": 105.796197
    }
  },
  {
    "address": "Dự án T&amp;T Tower, Quận Hoàng Mai",
    "location": {
      "lat": 21.007007,
      "lng": 105.796197
    }
  },
  {
    "address": "Dự án Tây Nam Hồ Linh Đàm, Quận Hoàng Mai",
    "location": {
      "lat": 20.9682526,
      "lng": 105.8323323
    }
  },
  {
    "address": "Dự án The Manor Central Park, Quận Hoàng Mai",
    "location": {
      "lat": 20.9735866,
      "lng": 105.8124413
    }
  },
  {
    "address": "Dự án The One Residence - Gamuda Garden, Quận Hoàng Mai",
    "location": {
      "lat": 20.9690584,
      "lng": 105.8765873
    }
  },
  {
    "address": "Dự án The Two Residence - Gamuda Garden, Quận Hoàng Mai",
    "location": {
      "lat": 20.9735866,
      "lng": 105.8124413
    }
  },
  {
    "address": "Dự án The Wings Residence, Quận Hoàng Mai",
    "location": {
      "lat": 20.9836984,
      "lng": 105.8636257
    }
  },
  {
    "address": "Dự án The Zen Residence, Quận Hoàng Mai",
    "location": {
      "lat": 20.9735866,
      "lng": 105.8124413
    }
  },
  {
    "address": "Dự án Thịnh Liệt, Quận Hoàng Mai",
    "location": {
      "lat": 20.9751142,
      "lng": 105.8554513
    }
  },
  {
    "address": "Dự án Tiến Phú, Quận Hoàng Mai",
    "location": {
      "lat": 20.9836984,
      "lng": 105.8636257
    }
  },
  {
    "address": "Dự án TTTM Đền Lừ, Quận Hoàng Mai",
    "location": {
      "lat": 20.9816101,
      "lng": 105.8573644
    }
  },
  {
    "address": "Dự án Viễn Đông Star, Quận Hoàng Mai",
    "location": {
      "lat": 20.9836984,
      "lng": 105.8636257
    }
  },
  {
    "address": "Dự án Vinawaco Thịnh Liệt, Quận Hoàng Mai",
    "location": {
      "lat": 21.0297622,
      "lng": 105.8445468
    }
  },
  {
    "address": "Dự án VP6 Linh Đàm, Quận Hoàng Mai",
    "location": {
      "lat": 20.9669852,
      "lng": 105.833383
    }
  },
  {
    "address": "Dự án VP7 Linh Đàm, Quận Hoàng Mai",
    "location": {
      "lat": 20.9713419,
      "lng": 105.8279961
    }
  },
  {
    "address": "Dự án X2 Đại Kim, Quận Hoàng Mai",
    "location": {
      "lat": 20.9739692,
      "lng": 105.8216911
    }
  },
  {
    "address": "Dự án 45 Nguyễn Sơn, Quận Long Biên",
    "location": {
      "lat": 21.047565,
      "lng": 105.877183
    }
  },
  {
    "address": "Dự án Aeon Mall Long Biên, Quận Long Biên",
    "location": {
      "lat": 21.0272741,
      "lng": 105.8993753
    }
  },
  {
    "address": "Dự án AQH Riverside, Quận Long Biên",
    "location": {
      "lat": 21.0709305,
      "lng": 105.8838677
    }
  },
  {
    "address": "Dự án Arden Park, Quận Long Biên",
    "location": {
      "lat": 21.0559251,
      "lng": 105.9123435
    }
  },
  {
    "address": "Dự án Berriver Long Biên, Quận Long Biên",
    "location": {
      "lat": 21.0440374,
      "lng": 105.877467
    }
  },
  {
    "address": "Dự án Bình Minh Garden, Quận Long Biên",
    "location": {
      "lat": 21.0674184,
      "lng": 105.885583
    }
  },
  {
    "address": "Dự án C17 Bộ Công An, Quận Long Biên",
    "location": {
      "lat": 21.0536531,
      "lng": 105.8700169
    }
  },
  {
    "address": "Dự án Tòa nhà CDA, Quận Hoàng Mai",
    "location": {
      "lat": 20.9836984,
      "lng": 105.8636257
    }
  },
  {
    "address": "Dự án Trương Định Plaza, Quận Hoàng Mai",
    "location": {
      "lat": 20.9843617,
      "lng": 105.8462254
    }
  },
  {
    "address": "Dự án VP5 Linh Đàm, Quận Hoàng Mai",
    "location": {
      "lat": 20.9634568,
      "lng": 105.8315958
    }
  },
  {
    "address": "Dự án VP2 Linh Đàm, Quận Hoàng Mai",
    "location": {
      "lat": 20.9671368,
      "lng": 105.8336326
    }
  },
  {
    "address": "Dự án VP3 Linh Đàm, Quận Hoàng Mai",
    "location": {
      "lat": 20.9642661,
      "lng": 105.8314175
    }
  },
  {
    "address": "Dự án VP4 Linh Đàm, Quận Hoàng Mai",
    "location": {
      "lat": 20.9632621,
      "lng": 105.8311942
    }
  },
  {
    "address": "Dự án Căn hộ dịch vụ cao cấp Nhật Bản, Quận Long Biên",
    "location": {
      "lat": 21.0548635,
      "lng": 105.8884966
    }
  },
  {
    "address": "Dự án Canal Park, Quận Long Biên",
    "location": {
      "lat": 21.0189426,
      "lng": 105.9217873
    }
  },
  {
    "address": "Dự án Chung cư NO-08 Giang Biên, Quận Long Biên",
    "location": {
      "lat": 21.0674567,
      "lng": 105.9200531
    }
  },
  {
    "address": "Dự án Chung cư Ruby City CT3, Quận Long Biên",
    "location": {
      "lat": 21.0589485,
      "lng": 105.9147263
    }
  },
  {
    "address": "Dự án Công viên công nghệ thông tin Hà Nội, Quận Long Biên",
    "location": {
      "lat": 21.0277644,
      "lng": 105.8341598
    }
  },
  {
    "address": "Dự án CT1 Thạch Bàn, Quận Long Biên",
    "location": {
      "lat": 21.0201063,
      "lng": 105.9076714
    }
  },
  {
    "address": "Dự án Eastern Park, Quận Long Biên",
    "location": {
      "lat": 21.0548635,
      "lng": 105.8884966
    }
  },
  {
    "address": "Dự án Eco City Việt Hưng, Quận Long Biên",
    "location": {
      "lat": 21.0660277,
      "lng": 105.9039634
    }
  },
  {
    "address": "Dự án Eco Smart City Cổ Linh Long Biên, Quận Long Biên",
    "location": {
      "lat": 21.027617,
      "lng": 105.8943136
    }
  },
  {
    "address": "Dự án Ecohome Phúc Lợi, Quận Long Biên",
    "location": {
      "lat": 21.0409254,
      "lng": 105.9276325
    }
  },
  {
    "address": "Dự án Elegant Park Villa Thạch Bàn, Quận Long Biên",
    "location": {
      "lat": 21.0271388,
      "lng": 105.9109199
    }
  },
  {
    "address": "Dự án FLC Eco House, Quận Long Biên",
    "location": {
      "lat": 21.0338662,
      "lng": 105.9124691
    }
  },
  {
    "address": "Dự án Garden City, Quận Long Biên",
    "location": {
      "lat": 21.0169811,
      "lng": 105.9200297
    }
  },
  {
    "address": "Dự án Green House, Quận Long Biên",
    "location": {
      "lat": 21.057669,
      "lng": 105.906358
    }
  },
  {
    "address": "Dự án Green Park CT15 Việt Hưng, Quận Long Biên",
    "location": {
      "lat": 21.0575538,
      "lng": 105.9024322
    }
  },
  {
    "address": "Dự án Green Tower Sài Đồng, Quận Long Biên",
    "location": {
      "lat": 21.0348453,
      "lng": 105.9127108
    }
  },
  {
    "address": "Dự án Hà Nội Garden Villa (Hà Nội Garden City), Quận Long Biên",
    "location": {
      "lat": 21.0169811,
      "lng": 105.9200297
    }
  },
  {
    "address": "Dự án Hà Nội Homeland, Quận Long Biên",
    "location": {
      "lat": 21.0419499,
      "lng": 105.8766538
    }
  },
  {
    "address": "Dự án Happy Star Tower, Quận Long Biên",
    "location": {
      "lat": 21.0597486,
      "lng": 105.9140416
    }
  },
  {
    "address": "Dự án HC Golden City, Quận Long Biên",
    "location": {
      "lat": 21.0390571,
      "lng": 105.8767496
    }
  },
  {
    "address": "Dự án Him Lam Thạch Bàn 2, Quận Long Biên",
    "location": {
      "lat": 21.0240699,
      "lng": 105.9103706
    }
  },
  {
    "address": "Dự án Him Lam Thượng Thanh, Quận Long Biên",
    "location": {
      "lat": 21.0619555,
      "lng": 105.8837914
    }
  },
  {
    "address": "Dự án Him Lam Vĩnh Tuy, Quận Long Biên",
    "location": {
      "lat": 21.0619555,
      "lng": 105.8837914
    }
  },
  {
    "address": "Dự án Hoàng Quy, Quận Long Biên",
    "location": {
      "lat": 21.0548635,
      "lng": 105.8884966
    }
  },
  {
    "address": "Dự án Hope Residence, Quận Long Biên",
    "location": {
      "lat": 21.0420823,
      "lng": 105.9044741
    }
  },
  {
    "address": "Dự án Imperia River View, Quận Long Biên",
    "location": {
      "lat": 21.0548635,
      "lng": 105.8884966
    }
  },
  {
    "address": "Dự án IT Park, Quận Long Biên",
    "location": {
      "lat": 21.0548635,
      "lng": 105.8884966
    }
  },
  {
    "address": "Dự án Khai Sơn City, Quận Long Biên",
    "location": {
      "lat": 21.0612183,
      "lng": 105.8797598
    }
  },
  {
    "address": "Dự án Khai Sơn Hill, Quận Long Biên",
    "location": {
      "lat": 21.0489402,
      "lng": 105.8839291
    }
  },
  {
    "address": "Dự án Khu đô thị Thượng Thanh, Quận Long Biên",
    "location": {
      "lat": 21.0660277,
      "lng": 105.9039634
    }
  },
  {
    "address": "Dự án Le Grand Jardin Sài Đồng, Quận Long Biên",
    "location": {
      "lat": 21.0371659,
      "lng": 105.9073311
    }
  },
  {
    "address": "Dự án Liền kề Rice City Sông Hồng, Quận Long Biên",
    "location": {
      "lat": 21.071071226000072,
      "lng": 105.90358619200003
    }
  },
  {
    "address": "Dự án Lotus Lake View, Quận Long Biên",
    "location": {
      "lat": 21.0548635,
      "lng": 105.8884966
    }
  },
  {
    "address": "Dự án Mipec Riverside, Quận Long Biên",
    "location": {
      "lat": 21.0458731,
      "lng": 105.866622
    }
  },
  {
    "address": "Dự án New Space, Quận Long Biên",
    "location": {
      "lat": 21.0548635,
      "lng": 105.8884966
    }
  },
  {
    "address": "Dự án Nhà ở cán bộ chiến sỹ công an Gia Lâm, Quận Long Biên",
    "location": {
      "lat": 21.0483713,
      "lng": 105.8783271
    }
  },
  {
    "address": "Dự án Nhà ở xã hội Him Lam Thượng Thanh, Quận Long Biên",
    "location": {
      "lat": 21.0655013,
      "lng": 105.8883137
    }
  },
  {
    "address": "Dự án Northern Diamond, Quận Long Biên",
    "location": {
      "lat": 21.0262603,
      "lng": 105.8947982
    }
  },
  {
    "address": "Dự án One 18 Ngọc Lâm, Quận Long Biên",
    "location": {
      "lat": 21.0467818,
      "lng": 105.8735023
    }
  },
  {
    "address": "Dự án PHC Complex 158 Nguyễn Sơn, Quận Long Biên",
    "location": {
      "lat": 21.0460423,
      "lng": 105.8795514
    }
  },
  {
    "address": "Dự án Phương Đông Green Home, Quận Long Biên",
    "location": {
      "lat": 21.0660277,
      "lng": 105.9039634
    }
  },
  {
    "address": "Dự án Plaschem Plaza, Quận Long Biên",
    "location": {
      "lat": 21.0494055,
      "lng": 105.8839413
    }
  },
  {
    "address": "Dự án Rice City Sông Hồng, Quận Long Biên",
    "location": {
      "lat": 21.0419499,
      "lng": 105.8766538
    }
  },
  {
    "address": "Dự án Ruby City, Quận Long Biên",
    "location": {
      "lat": 21.0589485,
      "lng": 105.9147263
    }
  },
  {
    "address": "Dự án Sài Đồng, Quận Long Biên",
    "location": {
      "lat": 21.0348453,
      "lng": 105.9127108
    }
  },
  {
    "address": "Dự án Sài Đồng Lake View, Quận Long Biên",
    "location": {
      "lat": 21.034837650000043,
      "lng": 105.90638072000007
    }
  },
  {
    "address": "Dự án Savico MegaMall, Quận Long Biên",
    "location": {
      "lat": 21.0503204,
      "lng": 105.893574
    }
  },
  {
    "address": "Dự án Silver Wings Building - Mekong, Quận Long Biên",
    "location": {
      "lat": 21.0426536,
      "lng": 105.870553
    }
  },
  {
    "address": "Dự án Sunrise Building 3, Quận Long Biên",
    "location": {
      "lat": 21.0391616,
      "lng": 105.9063784
    }
  },
  {
    "address": "Dự án Sunshine Green Iconic, Quận Long Biên",
    "location": {
      "lat": 21.0455857,
      "lng": 105.9003544
    }
  },
  {
    "address": "Dự án Thạch Bàn, Quận Long Biên",
    "location": {
      "lat": 21.0271388,
      "lng": 105.9109199
    }
  },
  {
    "address": "Dự án The Diamond Point, Quận Long Biên",
    "location": {
      "lat": 21.0466218,
      "lng": 105.9019474
    }
  },
  {
    "address": "Dự án TSG Lotus Sài Đồng, Quận Long Biên",
    "location": {
      "lat": 21.0392163,
      "lng": 105.9128977
    }
  },
  {
    "address": "Dự án Valencia Garden, Quận Long Biên",
    "location": {
      "lat": 21.0552785,
      "lng": 105.9112843
    }
  },
  {
    "address": "Dự án Việt Hưng, Quận Long Biên",
    "location": {
      "lat": 21.0575538,
      "lng": 105.9024322
    }
  },
  {
    "address": "Dự án Vincom Long Bien, Quận Long Biên",
    "location": {
      "lat": 21.0419499,
      "lng": 105.8766538
    }
  },
  {
    "address": "Dự án Vinhomes Riverside, Quận Long Biên",
    "location": {
      "lat": 21.0461519,
      "lng": 105.9156477
    }
  },
  {
    "address": "Dự án Vinhomes Symphony Riverside, Quận Long Biên",
    "location": {
      "lat": 21.0548635,
      "lng": 105.8884966
    }
  },
  {
    "address": "Dự án Vinhomes The Harmony, Quận Long Biên",
    "location": {
      "lat": 21.0371659,
      "lng": 105.9073311
    }
  },
  {
    "address": "Dự án Vỹ Yến Riverside, Quận Long Biên",
    "location": {
      "lat": 21.0381065,
      "lng": 105.8698221
    }
  },
  {
    "address": "Dự án AIC Mê Linh, Huyện Mê Linh",
    "location": {
      "lat": 21.1601408,
      "lng": 105.7380511
    }
  },
  {
    "address": "Dự án Ba Đình Mê Linh, Huyện Mê Linh",
    "location": {
      "lat": 21.0337815,
      "lng": 105.8140539
    }
  },